{"type":"FeatureCollection","features":[{"type":"Feature","properties":{"OBJECTID":1167,"Street":"Stripe Lane","Location":"At York Boundary","Ward":"Rural West York","BinType":"Dog waste bin only"},"geometry":{"type":"Point","coordinates":[-1.1405530853817625,53.997050665453266]}},{"type":"Feature","properties":{"OBJECTID":1002,"Street":"Bad Bargain Lane","Location":"Opp Jw Bramley Garth","Ward":"Osbaldwick and Derwent","BinType":"Dog waste bin only"},"geometry":{"type":"Point","coordinates":[-1.0404819431874122,53.96719930181442]}},{"type":"Feature","properties":{"OBJECTID":1001,"Street":"York Street","Location":"Os 7","Ward":"Osbaldwick and Derwent","BinType":"Dog and litter bin (large)"},"geometry":{"type":"Point","coordinates":[-0.9800059869919628,53.964840715631134]}},{"type":"Feature","properties":{"OBJECTID":1004,"Street":"Farndale Avenue","Location":"Opp 15","Ward":"Osbaldwick and Derwent","BinType":"Dog and litter bin (small)"},"geometry":{"type":"Point","coordinates":[-1.0327194191026963,53.956809750182536]}},{"type":"Feature","properties":{"OBJECTID":1003,"Street":"Eskdale Avenue","Location":"At The Jw Pinelands Way","Ward":"Osbaldwick and Derwent","BinType":"Dog and litter bin (small)"},"geometry":{"type":"Point","coordinates":[-1.0358787077322793,53.955289183994786]}},{"type":"Feature","properties":{"OBJECTID":1008,"Street":"Grimston Bar Park And Ride","Location":"Opp Toilets","Ward":"Osbaldwick and Derwent","BinType":"Dog and litter bin (small)"},"geometry":{"type":"Point","coordinates":[-1.0192134090967662,53.955001523447095]}},{"type":"Feature","properties":{"OBJECTID":1007,"Street":"Grimston Bar Park And Ride","Location":"Near Bus Shelter","Ward":"Osbaldwick and Derwent","BinType":"Dog and litter bin (large)"},"geometry":{"type":"Point","coordinates":[-1.0198812219040447,53.95446768484113]}},{"type":"Feature","properties":{"OBJECTID":1006,"Street":"Grimston Bar Park And Ride","Location":"Between Building And Bus Stop","Ward":"Osbaldwick and Derwent","BinType":"Dog and litter bin (large)"},"geometry":{"type":"Point","coordinates":[-1.0195401209792943,53.95471656966093]}},{"type":"Feature","properties":{"OBJECTID":1005,"Street":"Farndale Avenue","Location":"Os 1A","Ward":"Osbaldwick and Derwent","BinType":"Dog and litter bin (small)"},"geometry":{"type":"Point","coordinates":[-1.035011230548138,53.956558532359615]}},{"type":"Feature","properties":{"OBJECTID":1014,"Street":"Metcalfe Lane","Location":"Beginning Of Millenium Way Footpath","Ward":"Osbaldwick and Derwent","BinType":"Dog waste bin only"},"geometry":{"type":"Point","coordinates":[-1.038360697732225,53.96134008753659]}},{"type":"Feature","properties":{"OBJECTID":1013,"Street":"Metcalfe Lane","Location":"At The Jw Osbaldwick Village","Ward":"Osbaldwick and Derwent","BinType":"Dog and litter bin (large)"},"geometry":{"type":"Point","coordinates":[-1.0379030495591133,53.96003315037887]}},{"type":"Feature","properties":{"OBJECTID":1016,"Street":"Osbaldwick Lane","Location":"At The Jw Thirkleby Way","Ward":"Osbaldwick and Derwent","BinType":"Dog and litter bin (large)"},"geometry":{"type":"Point","coordinates":[-1.034720741879702,53.958578523091006]}},{"type":"Feature","properties":{"OBJECTID":1015,"Street":"Murton Way","Location":"Nr 21 OSBALDWICK ","Ward":"Osbaldwick and Derwent","BinType":"Dog and litter bin (small)"},"geometry":{"type":"Point","coordinates":[-1.030447901938577,53.959469901055236]}},{"type":"Feature","properties":{"OBJECTID":1012,"Street":"Metcalfe Lane","Location":"At The Jw Osbaldwick Village","Ward":"Osbaldwick and Derwent","BinType":"Dog and litter bin (large)"},"geometry":{"type":"Point","coordinates":[-1.0379030495591133,53.96003315037887]}},{"type":"Feature","properties":{"OBJECTID":1011,"Street":"Meadlands","Location":"Footpath Next To 42","Ward":"Osbaldwick and Derwent","BinType":"Dog and litter bin (small)"},"geometry":{"type":"Point","coordinates":[-1.0407718560310713,53.963867035005954]}},{"type":"Feature","properties":{"OBJECTID":1010,"Street":"Hull Road","Location":"Jw Pinelands Way","Ward":"Osbaldwick and Derwent","BinType":"Dog and litter bin (large)"},"geometry":{"type":"Point","coordinates":[-1.035811953977736,53.95421906346412]}},{"type":"Feature","properties":{"OBJECTID":1017,"Street":"Osbaldwick Lane","Location":"Bus Stop Opp 121","Ward":"Osbaldwick and Derwent","BinType":"Dog waste bin only"},"geometry":{"type":"Point","coordinates":[-1.0390693315871007,53.95836170704435]}},{"type":"Feature","properties":{"OBJECTID":1018,"Street":"Osbaidwick Lane","Location":"On sports GROUND","Ward":"Osbaldwick and Derwent","BinType":"Dog waste bin only"},"geometry":{"type":"Point","coordinates":[-1.0379096015684048,53.95842433283765]}},{"type":"Feature","properties":{"OBJECTID":1020,"Street":"Osbaldwick Lane","Location":"In Play Next To The Leyes NON YCC","Ward":"Osbaldwick and Derwent","BinType":"Dog and litter bin (small)"},"geometry":{"type":"Point","coordinates":[-1.0383377713869324,53.95769972368021]}},{"type":"Feature","properties":{"OBJECTID":1019,"Street":"Osbaldwick Lane","Location":"O/S  Play Area Next To The Leyes","Ward":"Osbaldwick and Derwent","BinType":"Dog and litter bin (small)"},"geometry":{"type":"Point","coordinates":[-1.0380437071141462,53.95789510837309]}},{"type":"Feature","properties":{"OBJECTID":1024,"Street":"Osbaldwick Link Road","Location":"Os Test Centre MURTON WAY ","Ward":"Osbaldwick and Derwent","BinType":"Dog waste bin only"},"geometry":{"type":"Point","coordinates":[-1.028185127057825,53.95977519586597]}},{"type":"Feature","properties":{"OBJECTID":1025,"Street":"Osbaldwick Village","Location":"At Jw Osbaldwick Link Road","Ward":"Osbaldwick and Derwent","BinType":"Dog waste bin only"},"geometry":{"type":"Point","coordinates":[-1.0289658300245816,53.95962870879739]}},{"type":"Feature","properties":{"OBJECTID":1023,"Street":"Osbaldwick Link Road","Location":"Bus Stop Opp Birch'S Yard LONK RD CT","Ward":"Osbaldwick and Derwent","BinType":"Dog and litter bin (small)"},"geometry":{"type":"Point","coordinates":[-1.028297450014358,53.958877293312966]}},{"type":"Feature","properties":{"OBJECTID":1022,"Street":"Osbaldwick Link Road","Location":"Bus Stop Near B&Q BUS SHELTER","Ward":"Osbaldwick and Derwent","BinType":"Dog and litter bin (large)"},"geometry":{"type":"Point","coordinates":[-1.0265527406571304,53.95657120468105]}},{"type":"Feature","properties":{"OBJECTID":1026,"Street":"Osbaldwick Village","Location":"At The Bridge Near Jw Osbaldwick Lane","Ward":"Osbaldwick and Derwent","BinType":"Dog waste bin only"},"geometry":{"type":"Point","coordinates":[-1.0342148559198814,53.9593654117042]}},{"type":"Feature","properties":{"OBJECTID":1027,"Street":"Osbaldwick Village","Location":"At The Jw Osbaldwick Lane Close To The Owl House","Ward":"Osbaldwick and Derwent","BinType":"Dog waste bin only"},"geometry":{"type":"Point","coordinates":[-1.0383020639118807,53.9585892600097]}},{"type":"Feature","properties":{"OBJECTID":1028,"Street":"Osbaldwick Village","Location":"At The Jw Tranby Avenue","Ward":"Osbaldwick and Derwent","BinType":"Dog waste bin only"},"geometry":{"type":"Point","coordinates":[-1.0313978772032,53.95925285892841]}},{"type":"Feature","properties":{"OBJECTID":1029,"Street":"Osbaldwick Village","Location":"Next To 43","Ward":"Osbaldwick and Derwent","BinType":"Dog waste bin only"},"geometry":{"type":"Point","coordinates":[-1.0361411942136527,53.95976736566081]}},{"type":"Feature","properties":{"OBJECTID":1033,"Street":"Tranby Avenue","Location":"opp 24","Ward":"Osbaldwick and Derwent","BinType":"Dog and litter bin (large)"},"geometry":{"type":"Point","coordinates":[-1.029972506732419,53.95499897407439]}},{"type":"Feature","properties":{"OBJECTID":1031,"Street":"The Leyes","Location":"Opp 53","Ward":"Osbaldwick and Derwent","BinType":"Dog and litter bin (large)"},"geometry":{"type":"Point","coordinates":[-1.0375020560570682,53.956929044282155]}},{"type":"Feature","properties":{"OBJECTID":1030,"Street":"The Leyes","Location":"Opp 53","Ward":"Osbaldwick and Derwent","BinType":"Dog and litter bin (large)"},"geometry":{"type":"Point","coordinates":[-1.0375020560570682,53.956929044282155]}},{"type":"Feature","properties":{"OBJECTID":1376,"Street":"Rowntree Park","Location":"Middle Of Park toilet block","Ward":"Micklegate","BinType":"Dog and litter bin (small)"},"geometry":{"type":"Point","coordinates":[-1.0802793895886829,53.94868942121822]}},{"type":"Feature","properties":{"OBJECTID":1375,"Street":"Rowntree Park","Location":"In Skatepark","Ward":"Micklegate","BinType":"Dog and litter bin (small)"},"geometry":{"type":"Point","coordinates":[-1.080550628014586,53.94813423583188]}},{"type":"Feature","properties":{"OBJECTID":1377,"Street":"Rowntree Park","Location":"Nr Bandstand","Ward":"Micklegate","BinType":"Dog and litter bin (small)"},"geometry":{"type":"Point","coordinates":[-1.0824026060127823,53.94706083444366]}},{"type":"Feature","properties":{"OBJECTID":1371,"Street":"Hull Road Park","Location":"rhs Tennis Court FOOTBALL COURT","Ward":"Hull Road","BinType":"Dog and litter bin (small)"},"geometry":{"type":"Point","coordinates":[-1.0574477071032349,53.955738926846344]}},{"type":"Feature","properties":{"OBJECTID":1372,"Street":"Rowntree Park","Location":"Entrance to play area TERRY AVE END ","Ward":"Micklegate","BinType":"Dog and litter bin (small)"},"geometry":{"type":"Point","coordinates":[-1.0798273113452135,53.94984542275868]}},{"type":"Feature","properties":{"OBJECTID":1373,"Street":"Rowntree Park","Location":"Entrance to play area MIDDLE ENT","Ward":"Micklegate","BinType":"Dog and litter bin (small)"},"geometry":{"type":"Point","coordinates":[-1.0805752053444442,53.94978823095457]}},{"type":"Feature","properties":{"OBJECTID":1374,"Street":"Rowntree Park","Location":"Entrance to play area VINE ST END ","Ward":"Micklegate","BinType":"Dog and litter bin (small)"},"geometry":{"type":"Point","coordinates":[-1.0812255662993888,53.95000891928498]}},{"type":"Feature","properties":{"OBJECTID":1378,"Street":"Rowntree Park","Location":"Nr Cameron Grove entrance","Ward":"Micklegate","BinType":"Dog and litter bin (small)"},"geometry":{"type":"Point","coordinates":[-1.0835368089302413,53.9467549074487]}},{"type":"Feature","properties":{"OBJECTID":1379,"Street":"Rowntree Park","Location":"Nr Lake","Ward":"Micklegate","BinType":"Dog and litter bin (small)"},"geometry":{"type":"Point","coordinates":[-1.0824092609639662,53.9488405254893]}},{"type":"Feature","properties":{"OBJECTID":1380,"Street":"Rowntree Park","Location":"Nr Richardson Street","Ward":"Micklegate","BinType":"Dog and litter bin (large)"},"geometry":{"type":"Point","coordinates":[-1.0828102876513148,53.94861888513215]}},{"type":"Feature","properties":{"OBJECTID":1381,"Street":"Rowntree Park","Location":"Path to vine Street entrance","Ward":"Micklegate","BinType":"Dog and litter bin (large)"},"geometry":{"type":"Point","coordinates":[-1.0813626810753068,53.95000996758155]}},{"type":"Feature","properties":{"OBJECTID":1382,"Street":"West Bank Park","Location":"Nr James Backhouse Place entrance","Ward":"Holgate","BinType":"Dog and litter bin (large)"},"geometry":{"type":"Point","coordinates":[-1.1127417425476465,53.952645566114626]}},{"type":"Feature","properties":{"OBJECTID":1383,"Street":"West Bank Park","Location":"Nr New Lane Entrance","Ward":"Holgate","BinType":"Dog and litter bin (large)"},"geometry":{"type":"Point","coordinates":[-1.111202851957663,53.95335323830364]}},{"type":"Feature","properties":{"OBJECTID":1384,"Street":"West Bank Park","Location":"Nr New Lane entrance","Ward":"Holgate","BinType":"Dog and litter bin (large)"},"geometry":{"type":"Point","coordinates":[-1.111202851957663,53.95335323830364]}},{"type":"Feature","properties":{"OBJECTID":1385,"Street":"West Bank Park","Location":"Nr Pavillion","Ward":"Holgate","BinType":"Dog and litter bin (small)"},"geometry":{"type":"Point","coordinates":[-1.1125200437034057,53.953039403315664]}},{"type":"Feature","properties":{"OBJECTID":1367,"Street":"Hull Road Park","Location":"lhs Tennis Court","Ward":"Hull Road","BinType":"Dog and litter bin (small)"},"geometry":{"type":"Point","coordinates":[-1.0565460898630263,53.955848696875385]}},{"type":"Feature","properties":{"OBJECTID":1368,"Street":"Hull Road Park","Location":"Nr Alcuin Ave/ Melrosegate entrance","Ward":"Hull Road","BinType":"Dog and litter bin (large)"},"geometry":{"type":"Point","coordinates":[-1.058633154675419,53.955883040297174]}},{"type":"Feature","properties":{"OBJECTID":1369,"Street":"Hull Road Park","Location":"Nr Alcuin Ave/ Melrosegate entrance","Ward":"Hull Road","BinType":"Dog and litter bin (large)"},"geometry":{"type":"Point","coordinates":[-1.058633154675419,53.955883040297174]}},{"type":"Feature","properties":{"OBJECTID":1370,"Street":"Hull Road Park","Location":"Play Area entrance","Ward":"Hull Road","BinType":"Dog and litter bin (small)"},"geometry":{"type":"Point","coordinates":[-1.054886881420085,53.956437861230995]}},{"type":"Feature","properties":{"OBJECTID":1362,"Street":"Glen Gardens","Location":"In Tennis Court","Ward":"Heworth","BinType":null},"geometry":{"type":"Point","coordinates":[-1.0646086805703823,53.964666112682046]}},{"type":"Feature","properties":{"OBJECTID":1363,"Street":"Glen Gardens","Location":"In Tennis Court","Ward":"Heworth","BinType":null},"geometry":{"type":"Point","coordinates":[-1.0641651034014454,53.96473456406838]}},{"type":"Feature","properties":{"OBJECTID":1366,"Street":"Glen Gardens","Location":"Nr rhs bowling green","Ward":"Heworth","BinType":"Dog and litter bin (small)"},"geometry":{"type":"Point","coordinates":[-1.0640537920754294,53.96494042291251]}},{"type":"Feature","properties":{"OBJECTID":1365,"Street":"Glen Gardens","Location":"Near Play Area","Ward":"Heworth","BinType":"Dog waste bin only"},"geometry":{"type":"Point","coordinates":[-1.0654826001063624,53.96443922139128]}},{"type":"Feature","properties":{"OBJECTID":1360,"Street":"Glen Gardens","Location":"In basketball court","Ward":"Heworth","BinType":"Dog and litter bin (large)"},"geometry":{"type":"Point","coordinates":[-1.0649301334226404,53.96460569762646]}},{"type":"Feature","properties":{"OBJECTID":1361,"Street":"Glen Gardens","Location":"In play area","Ward":"Heworth","BinType":"Dog and litter bin (small)"},"geometry":{"type":"Point","coordinates":[-1.0655140852595144,53.96439452585348]}},{"type":"Feature","properties":{"OBJECTID":1359,"Street":"Glen Gardens","Location":"By Pavillion","Ward":"Heworth","BinType":"Dog and litter bin (small)"},"geometry":{"type":"Point","coordinates":[-1.0645539070888332,53.965070149562855]}},{"type":"Feature","properties":{"OBJECTID":1358,"Street":"Glen Gardens","Location":"Bull Lane/ East Parade Corner","Ward":"Heworth","BinType":"Dog waste bin only"},"geometry":{"type":"Point","coordinates":[-1.0638750756789832,53.965433374916216]}},{"type":"Feature","properties":{"OBJECTID":1354,"Street":"Clarence Gardens","Location":"Between 2 greens front","Ward":"Guildhall","BinType":"Dog and litter bin (small)"},"geometry":{"type":"Point","coordinates":[-1.0806413801192478,53.968951295152465]}},{"type":"Feature","properties":{"OBJECTID":1355,"Street":"Clarence Gardens","Location":"Between 2 greens rear","Ward":"Guildhall","BinType":"Dog and litter bin (small)"},"geometry":{"type":"Point","coordinates":[-1.0807522253605968,53.96876339387291]}},{"type":"Feature","properties":{"OBJECTID":1356,"Street":"Clarence Gardens","Location":"Front right of green old greens rose bed","Ward":"Guildhall","BinType":"Dog and litter bin (small)"},"geometry":{"type":"Point","coordinates":[-1.079782095127146,53.96920537279171]}},{"type":"Feature","properties":{"OBJECTID":1357,"Street":"Glen Gardens","Location":"At Bull Lane Gate","Ward":"Heworth","BinType":"Dog waste bin only"},"geometry":{"type":"Point","coordinates":[-1.0637979276006784,53.96479462092168]}},{"type":"Feature","properties":{"OBJECTID":1346,"Street":"Main Street","Location":"O/s Shop Nr Grey Horse Pub","Ward":"Wheldrake","BinType":"Dog and litter bin (large)"},"geometry":{"type":"Point","coordinates":[-0.9348768307781099,53.92035304167879]}},{"type":"Feature","properties":{"OBJECTID":1347,"Street":"Main Street","Location":"Jnc York Rd by School Naburn","Ward":"Wheldrake","BinType":"Dog and litter bin (small)"},"geometry":{"type":"Point","coordinates":[-1.0903253384533094,53.902234452774515]}},{"type":"Feature","properties":{"OBJECTID":1348,"Street":"Main Street","Location":"Between 9A & 9B in Snicket Wheldrake","Ward":"Wheldrake","BinType":"Dog and litter bin (large)"},"geometry":{"type":"Point","coordinates":[-0.9711744278313501,53.89446872650936]}},{"type":"Feature","properties":{"OBJECTID":1349,"Street":"North Lane","Location":"Os Wheldrake Primary School","Ward":"Wheldrake","BinType":"Dog and litter bin (small)"},"geometry":{"type":"Point","coordinates":[-0.9653656389257823,53.89737595374742]}},{"type":"Feature","properties":{"OBJECTID":1352,"Street":"Clarence Gardens","Location":"Back left of green NEAR FLATS ","Ward":"Guildhall","BinType":"Dog and litter bin (small)"},"geometry":{"type":"Point","coordinates":[-1.0800368553775692,53.96940506019816]}},{"type":"Feature","properties":{"OBJECTID":1353,"Street":"Clarence Gardens","Location":"Back right of green NEAR FLATS","Ward":"Guildhall","BinType":"Dog and litter bin (small)"},"geometry":{"type":"Point","coordinates":[-1.0805301383369412,53.96915716939858]}},{"type":"Feature","properties":{"OBJECTID":1351,"Street":"York Road","Location":"Opp J/w  Main St O/s 2 Naburn","Ward":"Wheldrake","BinType":"Dog and litter bin (small)"},"geometry":{"type":"Point","coordinates":[-1.0902410598615255,53.90191024123251]}},{"type":"Feature","properties":{"OBJECTID":1350,"Street":"Valley View","Location":"Back Of 18 On Footpath","Ward":"Wheldrake","BinType":"Dog waste bin only"},"geometry":{"type":"Point","coordinates":[-0.9725280708448368,53.89573867122993]}},{"type":"Feature","properties":{"OBJECTID":1342,"Street":"Elvington Green","Location":"Main Street Entrance Nr Post Box","Ward":"Wheldrake","BinType":"Dog and litter bin (large)"},"geometry":{"type":"Point","coordinates":[-0.9353349074674792,53.92030317331723]}},{"type":"Feature","properties":{"OBJECTID":1343,"Street":"Front Street","Location":"Next To Naburn House And Slipway","Ward":"Wheldrake","BinType":"Dog and litter bin (small)"},"geometry":{"type":"Point","coordinates":[-1.0911400701950378,53.90256419415843]}},{"type":"Feature","properties":{"OBJECTID":1344,"Street":"Front Street","Location":"Opp Rawcliffe Cottage Next To Bus Stop","Ward":"Wheldrake","BinType":"Dog and litter bin (small)"},"geometry":{"type":"Point","coordinates":[-1.090367862669961,53.903079660242696]}},{"type":"Feature","properties":{"OBJECTID":1345,"Street":"Main Street","Location":"Jnc Elvington Park At Bus Stop","Ward":"Wheldrake","BinType":"Dog and litter bin (large)"},"geometry":{"type":"Point","coordinates":[-0.9526484911779807,53.925147240171874]}},{"type":"Feature","properties":{"OBJECTID":1339,"Street":"Church Lane","Location":"Opp St Helens Church","Ward":"Wheldrake","BinType":"Dog and litter bin (small)"},"geometry":{"type":"Point","coordinates":[-0.96240726017407,53.89638868533371]}},{"type":"Feature","properties":{"OBJECTID":1338,"Street":"Broad Highway","Location":"Os Tennis Court","Ward":"Wheldrake","BinType":"Dog waste bin only"},"geometry":{"type":"Point","coordinates":[-0.9675966180736528,53.89886023910525]}},{"type":"Feature","properties":{"OBJECTID":1340,"Street":"Church Lane","Location":"O/s Holy Trinity Church Elvington","Ward":"Wheldrake","BinType":"Dog waste bin only"},"geometry":{"type":"Point","coordinates":[-0.9342952268459307,53.91867606905426]}},{"type":"Feature","properties":{"OBJECTID":1341,"Street":"Dauby Lane","Location":"At J/w B1228 Elvington","Ward":"Wheldrake","BinType":"Dog waste bin only"},"geometry":{"type":"Point","coordinates":[-0.9403040149066172,53.92370871577784]}},{"type":"Feature","properties":{"OBJECTID":1327,"Street":"A19","Location":"Layby Of Happy Haddock","Ward":"Wheldrake","BinType":"Dog and litter bin (small)"},"geometry":{"type":"Point","coordinates":[-1.0472246881001823,53.8940805380254]}},{"type":"Feature","properties":{"OBJECTID":1328,"Street":"A19","Location":"Layby Of Happy Haddock","Ward":"Wheldrake","BinType":"Dog and litter bin (small)"},"geometry":{"type":"Point","coordinates":[-1.0474426890943547,53.89453167686518]}},{"type":"Feature","properties":{"OBJECTID":1332,"Street":"Back Lane South","Location":"At Foot Path Near Low Well Park","Ward":"Wheldrake","BinType":"Dog and litter bin (large)"},"geometry":{"type":"Point","coordinates":[-0.9704091498918183,53.89279035243888]}},{"type":"Feature","properties":{"OBJECTID":1333,"Street":"Back Lane south","Location":"Footpath to Thorganby Opp 85","Ward":"Wheldrake","BinType":"Dog and litter bin (large)"},"geometry":{"type":"Point","coordinates":[-0.9670291350663784,53.89410057408925]}},{"type":"Feature","properties":{"OBJECTID":1336,"Street":"Broad Highway","Location":"At The Jw North Lane","Ward":"Wheldrake","BinType":"Dog and litter bin (large)"},"geometry":{"type":"Point","coordinates":[-0.9661433936052788,53.8973107461681]}},{"type":"Feature","properties":{"OBJECTID":1337,"Street":"Broad Highway","Location":"In Play Park Nr School","Ward":"Wheldrake","BinType":"Dog and litter bin (small)"},"geometry":{"type":"Point","coordinates":[-0.9662871194825561,53.89765353698237]}},{"type":"Feature","properties":{"OBJECTID":1335,"Street":"Braithegayte","Location":"In Green Space","Ward":"Wheldrake","BinType":"Dog and litter bin (small)"},"geometry":{"type":"Point","coordinates":[-0.9677656714997004,53.89755839634452]}},{"type":"Feature","properties":{"OBJECTID":1334,"Street":"Beck Lane","Location":"Footpath Behind Rectory","Ward":"Wheldrake","BinType":"Dog waste bin only"},"geometry":{"type":"Point","coordinates":[-0.9592952247066376,53.897916723918506]}},{"type":"Feature","properties":{"OBJECTID":1323,"Street":"York Road","Location":"Os 45 Front Street Shops","Ward":"Westfield","BinType":"Dog and litter bin (large)"},"geometry":{"type":"Point","coordinates":[-1.1227311900315882,53.95588269716362]}},{"type":"Feature","properties":{"OBJECTID":1324,"Street":"A19","Location":"Bus Stop Next To Jw Entrance To Deighton","Ward":"Wheldrake","BinType":"Dog and litter bin (small)"},"geometry":{"type":"Point","coordinates":[-1.0455581412483268,53.890418097770656]}},{"type":"Feature","properties":{"OBJECTID":1325,"Street":"A19","Location":"Layby Next To Happy Haddock","Ward":"Wheldrake","BinType":"Dog and litter bin (small)"},"geometry":{"type":"Point","coordinates":[-1.0474447323544038,53.89444181119547]}},{"type":"Feature","properties":{"OBJECTID":1326,"Street":"A19","Location":"Layby Of Happy Haddock","Ward":"Wheldrake","BinType":"Dog and litter bin (small)"},"geometry":{"type":"Point","coordinates":[-1.0472727838488505,53.89397306134894]}},{"type":"Feature","properties":{"OBJECTID":1322,"Street":"York Road","Location":"Jw Severus Street","Ward":"Westfield","BinType":"Dog and litter bin (small)"},"geometry":{"type":"Point","coordinates":[-1.1209288440114868,53.956076251610924]}},{"type":"Feature","properties":{"OBJECTID":1321,"Street":"Woodford Place","Location":"Opp 13","Ward":"Westfield","BinType":"Dog waste bin only"},"geometry":{"type":"Point","coordinates":[-1.119776990951949,53.94708876001132]}},{"type":"Feature","properties":{"OBJECTID":1320,"Street":"Windsor Drive","Location":"Ent to Moor  Nr Hobstone CT","Ward":"Westfield","BinType":"Dog and litter bin (large)"},"geometry":{"type":"Point","coordinates":[-1.11834169181069,53.94651198995764]}},{"type":"Feature","properties":{"OBJECTID":1319,"Street":"Westfield Place","Location":"Rear 85, On Play Area","Ward":"Westfield","BinType":"Dog waste bin only"},"geometry":{"type":"Point","coordinates":[-1.141370887563139,53.94764047298882]}},{"type":"Feature","properties":{"OBJECTID":1309,"Street":"Tedder Road Play Area","Location":"In Play Area","Ward":"Westfield","BinType":"Dog and litter bin (small)"},"geometry":{"type":"Point","coordinates":[-1.1364124258553483,53.94500739565565]}},{"type":"Feature","properties":{"OBJECTID":1311,"Street":"Tennent Road","Location":"Snicket By 86","Ward":"Westfield","BinType":"Dog and litter bin (large)"},"geometry":{"type":"Point","coordinates":[-1.133475890928277,53.94922861236558]}},{"type":"Feature","properties":{"OBJECTID":1312,"Street":"Thanet Road","Location":"Opp Lidl o/s Acorn Rugby Club","Ward":"Westfield","BinType":"Dog and litter bin (large)"},"geometry":{"type":"Point","coordinates":[-1.1217721153685913,53.94422718040218]}},{"type":"Feature","properties":{"OBJECTID":1314,"Street":"Thanet Road","Location":"O/s Lidl at Bus Stop","Ward":"Dringhouses and Woodthorpe","BinType":"Dog and litter bin (large)"},"geometry":{"type":"Point","coordinates":[-1.1219323199234321,53.94457888544805]}},{"type":"Feature","properties":{"OBJECTID":1315,"Street":"The Green","Location":"Jw Wetherby Road","Ward":"Westfield","BinType":"Dog and litter bin (large)"},"geometry":{"type":"Point","coordinates":[-1.1321099783987285,53.95557329797604]}},{"type":"Feature","properties":{"OBJECTID":1316,"Street":"Tudor Road","Location":"Bus Stop Os 18","Ward":"Westfield","BinType":"Dog and litter bin (small)"},"geometry":{"type":"Point","coordinates":[-1.122320480726339,53.950765501289325]}},{"type":"Feature","properties":{"OBJECTID":1318,"Street":"Tudor Road","Location":"Os 3 By Bus Stop","Ward":"Westfield","BinType":"Dog and litter bin (small)"},"geometry":{"type":"Point","coordinates":[-1.1231774338189313,53.95059199626821]}},{"type":"Feature","properties":{"OBJECTID":1317,"Street":"Tudor Road","Location":"Jw Gale Lane","Ward":"Westfield","BinType":"Dog waste bin only"},"geometry":{"type":"Point","coordinates":[-1.1279193328403407,53.94971871010033]}},{"type":"Feature","properties":{"OBJECTID":1308,"Street":"Tedder Road","Location":"Opp 15","Ward":"Westfield","BinType":"Dog and litter bin (large)"},"geometry":{"type":"Point","coordinates":[-1.1368462179268617,53.945396998446164]}},{"type":"Feature","properties":{"OBJECTID":1307,"Street":"Stirrup Close","Location":"End of Road Nr 19","Ward":"Westfield","BinType":"Dog waste bin only"},"geometry":{"type":"Point","coordinates":[-1.1364079083366572,53.942274996613406]}},{"type":"Feature","properties":{"OBJECTID":1305,"Street":"Slessor Road","Location":"Green Space Between Slessor And Tedder Road","Ward":"Westfield","BinType":"Dog waste bin only"},"geometry":{"type":"Point","coordinates":[-1.1369071275853826,53.94466041622681]}},{"type":"Feature","properties":{"OBJECTID":1306,"Street":"St Stephens Road","Location":"Os 73","Ward":"Westfield","BinType":"Dog waste bin only"},"geometry":{"type":"Point","coordinates":[-1.1289866688594232,53.94529534377605]}},{"type":"Feature","properties":{"OBJECTID":1300,"Street":"Ridgeway","Location":"Bus Stop Jw Askham Lane","Ward":"Westfield","BinType":"Dog and litter bin (large)"},"geometry":{"type":"Point","coordinates":[-1.1357288108656678,53.95228279389917]}},{"type":"Feature","properties":{"OBJECTID":1301,"Street":"Ridgeway","Location":"Bus Stop Os St Aiden Church","Ward":"Westfield","BinType":"Dog and litter bin (small)"},"geometry":{"type":"Point","coordinates":[-1.13611809480259,53.95409218785465]}},{"type":"Feature","properties":{"OBJECTID":1303,"Street":"Ridgeway","Location":"Opp St Aidans Church By Bus Stop","Ward":"Westfield","BinType":"Dog and litter bin (small)"},"geometry":{"type":"Point","coordinates":[-1.135917603094782,53.95420759085581]}},{"type":"Feature","properties":{"OBJECTID":1302,"Street":"Ridgeway","Location":"Jw Wetherby Road","Ward":"Westfield","BinType":"Dog waste bin only"},"geometry":{"type":"Point","coordinates":[-1.135595399827994,53.956524185761246]}},{"type":"Feature","properties":{"OBJECTID":1299,"Street":"Ridgeway","Location":"On Askham Lane","Ward":"Westfield","BinType":"Dog and litter bin (large)"},"geometry":{"type":"Point","coordinates":[-1.1359361658794915,53.95183488322429]}},{"type":"Feature","properties":{"OBJECTID":1298,"Street":"Oldman Court","Location":"Open Space behind building","Ward":"Westfield","BinType":"Dog waste bin only"},"geometry":{"type":"Point","coordinates":[-1.1289376881278665,53.942526668400575]}},{"type":"Feature","properties":{"OBJECTID":1296,"Street":"Kingsway West","Location":"Os 147","Ward":"Westfield","BinType":"Dog and litter bin (large)"},"geometry":{"type":"Point","coordinates":[-1.1218243968426123,53.94681612258792]}},{"type":"Feature","properties":{"OBJECTID":1297,"Street":"Lowfields Drive","Location":"On Green Nr Jw Dijon Avenue","Ward":"Westfield","BinType":"Dog waste bin only"},"geometry":{"type":"Point","coordinates":[-1.1264027155448053,53.95302428226298]}},{"type":"Feature","properties":{"OBJECTID":1293,"Street":"Hamilton Drive West","Location":"Os 240","Ward":"Westfield","BinType":"Dog and litter bin (small)"},"geometry":{"type":"Point","coordinates":[-1.1198716531142294,53.95127788557432]}},{"type":"Feature","properties":{"OBJECTID":1292,"Street":"Green Lane","Location":"Snicket By Side Of 88 After Bridge","Ward":"Westfield","BinType":"Dog waste bin only"},"geometry":{"type":"Point","coordinates":[-1.1193738035200547,53.94959347281237]}},{"type":"Feature","properties":{"OBJECTID":1294,"Street":"Kingsthorpe","Location":"Green Space Facing Roundabout","Ward":"Westfield","BinType":"Dog waste bin only"},"geometry":{"type":"Point","coordinates":[-1.121044794507795,53.95128647205719]}},{"type":"Feature","properties":{"OBJECTID":1295,"Street":"Kingsthorpe","Location":"Os 31","Ward":"Westfield","BinType":"Dog waste bin only"},"geometry":{"type":"Point","coordinates":[-1.1206681031532228,53.95253305479103]}},{"type":"Feature","properties":{"OBJECTID":1287,"Street":"Grange Lane","Location":"Opp 46","Ward":"Westfield","BinType":"Dog and litter bin (small)"},"geometry":{"type":"Point","coordinates":[-1.1390074001292247,53.95068848257871]}},{"type":"Feature","properties":{"OBJECTID":1289,"Street":"Grange Lane Park","Location":"Grange Lane entrance","Ward":"Westfield","BinType":"Dog and litter bin (large)"},"geometry":{"type":"Point","coordinates":[-1.1413270672025584,53.950516331509405]}},{"type":"Feature","properties":{"OBJECTID":1290,"Street":"Green Lane","Location":"After Bridge","Ward":"Westfield","BinType":"Dog and litter bin (small)"},"geometry":{"type":"Point","coordinates":[-1.1197392539352078,53.94960513847151]}},{"type":"Feature","properties":{"OBJECTID":1291,"Street":"Green Lane","Location":"Bus Stop Nr Jw Beaconsfield Street","Ward":"Westfield","BinType":"Dog and litter bin (small)"},"geometry":{"type":"Point","coordinates":[-1.1247507959415852,53.95477391823459]}},{"type":"Feature","properties":{"OBJECTID":1282,"Street":"Front Street","Location":"Opp 77 o/s Acomb Library","Ward":"Westfield","BinType":"Dog and litter bin (small)"},"geometry":{"type":"Point","coordinates":[-1.129324599872973,53.95394429147687]}},{"type":"Feature","properties":{"OBJECTID":1283,"Street":"Gale Lane","Location":"O/s Chip Shop Ent to South Park Care Home","Ward":"Westfield","BinType":"Dog and litter bin (small)"},"geometry":{"type":"Point","coordinates":[-1.1239880149763388,53.94608590690901]}},{"type":"Feature","properties":{"OBJECTID":1285,"Street":"Gale Lane","Location":"Os 153 By Po","Ward":"Westfield","BinType":"Dog and litter bin (large)"},"geometry":{"type":"Point","coordinates":[-1.1247775338476116,53.946945525075044]}},{"type":"Feature","properties":{"OBJECTID":1286,"Street":"Grange Lane","Location":"Opp 30","Ward":"Westfield","BinType":"Dog waste bin only"},"geometry":{"type":"Point","coordinates":[-1.137610964003709,53.95116382317982]}},{"type":"Feature","properties":{"OBJECTID":1274,"Street":"Foxwood Lane","Location":"Chesney Field Gale Lane End","Ward":"Westfield","BinType":"Dog and litter bin (large)"},"geometry":{"type":"Point","coordinates":[-1.1249543198462837,53.94505033344112]}},{"type":"Feature","properties":{"OBJECTID":1275,"Street":"Front Street","Location":"Bus Stop Os 55","Ward":"Westfield","BinType":"Dog and litter bin (small)"},"geometry":{"type":"Point","coordinates":[-1.128755039461412,53.95421879273754]}},{"type":"Feature","properties":{"OBJECTID":1276,"Street":"Front Street","Location":"Gateway, The old school","Ward":"Westfield","BinType":"Dog and litter bin (large)"},"geometry":{"type":"Point","coordinates":[-1.1249082431895825,53.95526041898825]}},{"type":"Feature","properties":{"OBJECTID":1277,"Street":"Front Street","Location":"Jw York Road","Ward":"Westfield","BinType":"Dog and litter bin (large)"},"geometry":{"type":"Point","coordinates":[-1.1234951273625693,53.95578940297941]}},{"type":"Feature","properties":{"OBJECTID":1278,"Street":"Front Street","Location":"Os 83A Chippy","Ward":"Westfield","BinType":"Dog and litter bin (small)"},"geometry":{"type":"Point","coordinates":[-1.1298725567162904,53.953975224389076]}},{"type":"Feature","properties":{"OBJECTID":1279,"Street":"Front Street","Location":"Os Methodist Church","Ward":"Westfield","BinType":"Dog and litter bin (small)"},"geometry":{"type":"Point","coordinates":[-1.130845542822633,53.95335310286706]}},{"type":"Feature","properties":{"OBJECTID":1280,"Street":"Front Street","Location":"Roundabout Off York Road Nr Morrisons","Ward":"Westfield","BinType":"Dog and litter bin (small)"},"geometry":{"type":"Point","coordinates":[-1.1259834814762468,53.95485479411149]}},{"type":"Feature","properties":{"OBJECTID":1281,"Street":"Front Street","Location":"O/s 6 Opp Specsavers","Ward":"Westfield","BinType":"Dog and litter bin (large)"},"geometry":{"type":"Point","coordinates":[-1.1242632031879078,53.955498397242735]}},{"type":"Feature","properties":{"OBJECTID":1270,"Street":"Foxwood Lane","Location":"Chesney's Field entrance","Ward":"Westfield","BinType":"Dog and litter bin (large)"},"geometry":{"type":"Point","coordinates":[-1.1258637772542863,53.94381660143074]}},{"type":"Feature","properties":{"OBJECTID":1271,"Street":"Foxwood Lane","Location":"In Playground On Chesney Fields","Ward":"Westfield","BinType":"Dog and litter bin (small)"},"geometry":{"type":"Point","coordinates":[-1.124432253864501,53.94451623521661]}},{"type":"Feature","properties":{"OBJECTID":1272,"Street":"Foxwood Lane","Location":"Junction With Huntsmans Walk","Ward":"Westfield","BinType":"Dog and litter bin (small)"},"geometry":{"type":"Point","coordinates":[-1.1272422407787106,53.943467099432844]}},{"type":"Feature","properties":{"OBJECTID":1273,"Street":"Foxwood Lane","Location":"Os 66 Bus Stop","Ward":"Westfield","BinType":"Dog and litter bin (small)"},"geometry":{"type":"Point","coordinates":[-1.133850329030774,53.942921703417774]}},{"type":"Feature","properties":{"OBJECTID":1268,"Street":"Foxwood Lane","Location":"Bus Stop Os Foxwood Shops","Ward":"Westfield","BinType":"Dog and litter bin (large)"},"geometry":{"type":"Point","coordinates":[-1.1325536935612306,53.94300223025068]}},{"type":"Feature","properties":{"OBJECTID":1269,"Street":"Foxwood Lane","Location":"Chesney Fields On Path","Ward":"Westfield","BinType":"Dog waste bin only"},"geometry":{"type":"Point","coordinates":[-1.1257864855931492,53.94386996745395]}},{"type":"Feature","properties":{"OBJECTID":1267,"Street":"Foxwood Lane","Location":"Top of Hill Opp Foresters Walk","Ward":"Westfield","BinType":"Dog and litter bin (small)"},"geometry":{"type":"Point","coordinates":[-1.127381585962897,53.94336025481205]}},{"type":"Feature","properties":{"OBJECTID":1266,"Street":"Foxwood Lane","Location":"Back Of 2 Stirrup Close","Ward":"Westfield","BinType":"Dog waste bin only"},"geometry":{"type":"Point","coordinates":[-1.1390730853403475,53.94305810615724]}},{"type":"Feature","properties":{"OBJECTID":1264,"Street":"Dijon Ave/ Lowfields Drive","Location":"Bottom of Morrisons Car Park","Ward":"Westfield","BinType":"Dog and litter bin (large)"},"geometry":{"type":"Point","coordinates":[-1.1261517973658848,53.953364003500795]}},{"type":"Feature","properties":{"OBJECTID":1263,"Street":"Cornlands Road Play Area","Location":"In Play Area","Ward":"Westfield","BinType":"Dog waste bin only"},"geometry":{"type":"Point","coordinates":[-1.1329856242301537,53.94862287718736]}},{"type":"Feature","properties":{"OBJECTID":1261,"Street":"Cornlands Road","Location":"Nr Jw The Knoll","Ward":"Westfield","BinType":"Dog waste bin only"},"geometry":{"type":"Point","coordinates":[-1.1354389711211195,53.947139550305025]}},{"type":"Feature","properties":{"OBJECTID":1262,"Street":"Cornlands Road","Location":"Os 91 Shops","Ward":"Westfield","BinType":"Dog waste bin only"},"geometry":{"type":"Point","coordinates":[-1.1335684878685772,53.947701312754276]}},{"type":"Feature","properties":{"OBJECTID":1257,"Street":"Beagle Ridge Drive","Location":"Os Foxwood Shops","Ward":"Westfield","BinType":"Dog and litter bin (large)"},"geometry":{"type":"Point","coordinates":[-1.1329289199534316,53.943274580036245]}},{"type":"Feature","properties":{"OBJECTID":1258,"Street":"Bellhouse Way","Location":"Opp 103","Ward":"Westfield","BinType":"Dog and litter bin (large)"},"geometry":{"type":"Point","coordinates":[-1.1269596474339463,53.94094839057308]}},{"type":"Feature","properties":{"OBJECTID":1260,"Street":"Bramham Road","Location":"Bus Stop Jw Barkston Avenue","Ward":"Westfield","BinType":"Dog and litter bin (large)"},"geometry":{"type":"Point","coordinates":[-1.1399268247291714,53.95340046453098]}},{"type":"Feature","properties":{"OBJECTID":1259,"Street":"Bramham Avenue","Location":"Jw Bramham Road","Ward":"Westfield","BinType":"Dog waste bin only"},"geometry":{"type":"Point","coordinates":[-1.1396104437505765,53.95396444572951]}},{"type":"Feature","properties":{"OBJECTID":1253,"Street":"Askham Lane","Location":"Entrance To Westfield Primary","Ward":"Westfield","BinType":"Dog and litter bin (large)"},"geometry":{"type":"Point","coordinates":[-1.137127449609878,53.949488577309424]}},{"type":"Feature","properties":{"OBJECTID":1254,"Street":"Askham Lane","Location":"Jnc Tedder Rd Bus Stop","Ward":"Rural West York","BinType":"Dog and litter bin (small)"},"geometry":{"type":"Point","coordinates":[-1.1390003129848563,53.945852866682245]}},{"type":"Feature","properties":{"OBJECTID":1255,"Street":"Askham Lane/ Gale Lane corner","Location":"Next to bench","Ward":"Westfield","BinType":"Dog and litter bin (large)"},"geometry":{"type":"Point","coordinates":[-1.1323636452942658,53.952896695141135]}},{"type":"Feature","properties":{"OBJECTID":1256,"Street":"Bachelor Hill","Location":"Askham Lane entrance","Ward":"Westfield","BinType":"Dog and litter bin (large)"},"geometry":{"type":"Point","coordinates":[-1.1355788665401012,53.950690832856814]}},{"type":"Feature","properties":{"OBJECTID":1250,"Street":"Acomb Green","Location":"Near entrance Danebury Drive","Ward":"Westfield","BinType":"Dog and litter bin (large)"},"geometry":{"type":"Point","coordinates":[-1.1321099783987285,53.95557329797604]}},{"type":"Feature","properties":{"OBJECTID":1252,"Street":"Askham Grove","Location":"Snicket to Tennent Road","Ward":"Westfield","BinType":"Dog and litter bin (large)"},"geometry":{"type":"Point","coordinates":[-1.1350776101099747,53.94840426386522]}},{"type":"Feature","properties":{"OBJECTID":1248,"Street":"Acomb Green","Location":"Near Play Area","Ward":"Westfield","BinType":"Dog and litter bin (large)"},"geometry":{"type":"Point","coordinates":[-1.1307231051728934,53.954844231354855]}},{"type":"Feature","properties":{"OBJECTID":1249,"Street":"Acomb Green","Location":"Near Trees","Ward":"Westfield","BinType":"Dog waste bin only"},"geometry":{"type":"Point","coordinates":[-1.1318740875942477,53.95445707789561]}},{"type":"Feature","properties":{"OBJECTID":1386,"Street":"Hazel Court","Location":"O/s Pedestrian Access Gate","Ward":"Guildhall","BinType":"Dog and litter bin (small)"},"geometry":{"type":"Point","coordinates":[-1.0647983529616762,53.95891522053611]}},{"type":"Feature","properties":{"OBJECTID":1387,"Street":"Hazel Court","Location":"In Snicket to left of Pedestrian Access gate","Ward":"Guildhall","BinType":"Dog and litter bin (small)"},"geometry":{"type":"Point","coordinates":[-1.0648059502494656,53.95925682667107]}},{"type":"Feature","properties":{"OBJECTID":1388,"Street":"Hazel Court","Location":"In Depot By Issue Room Door","Ward":"Guildhall","BinType":"Dog and litter bin (small)"},"geometry":{"type":"Point","coordinates":[-1.0643526243571857,53.95908252458956]}},{"type":"Feature","properties":{"OBJECTID":1389,"Street":"Hazel Court","Location":"in Depot By Bike Sheds  Seating area","Ward":"Guildhall","BinType":"Dog and litter bin (small)"},"geometry":{"type":"Point","coordinates":[-1.0636500562237108,53.95914895723295]}},{"type":"Feature","properties":{"OBJECTID":1244,"Street":"York Road","Location":"Os 25","Ward":"Strensall","BinType":"Dog and litter bin (large)"},"geometry":{"type":"Point","coordinates":[-1.0385202752169418,54.036517347049895]}},{"type":"Feature","properties":{"OBJECTID":1245,"Street":"York Road","Location":"Os 43 By Bus Stop","Ward":"Strensall","BinType":"Dog and litter bin (small)"},"geometry":{"type":"Point","coordinates":[-1.0386159705948574,54.0330307720734]}},{"type":"Feature","properties":{"OBJECTID":1246,"Street":"Hopgrove Lane South","Location":"Os 23 By Substation","Ward":"Strensall","BinType":"Dog and litter bin (large)"},"geometry":{"type":"Point","coordinates":[-1.0270760097493692,53.98777310408501]}},{"type":"Feature","properties":{"OBJECTID":1247,"Street":"Acomb Green","Location":"Near Play Area","Ward":"Westfield","BinType":"Dog and litter bin (large)"},"geometry":{"type":"Point","coordinates":[-1.1308518296709424,53.95524962399432]}},{"type":"Feature","properties":{"OBJECTID":1243,"Street":"York Road","Location":"Os 105 By Shelter","Ward":"Strensall","BinType":"Dog and litter bin (small)"},"geometry":{"type":"Point","coordinates":[-1.040270835044631,54.02945777893792]}},{"type":"Feature","properties":{"OBJECTID":1242,"Street":"York Road","Location":"Opp Jw Kirklands","Ward":"Strensall","BinType":"Dog waste bin only"},"geometry":{"type":"Point","coordinates":[-1.0386606575021315,54.033741180574026]}},{"type":"Feature","properties":{"OBJECTID":1241,"Street":"York Road","Location":"Jw Knapton Close","Ward":"Strensall","BinType":"Dog and litter bin (small)"},"geometry":{"type":"Point","coordinates":[-1.039356274136528,54.03138289650667]}},{"type":"Feature","properties":{"OBJECTID":1240,"Street":"York Road","Location":"By Roundabout Nr Barracks","Ward":"Strensall","BinType":"Dog waste bin only"},"geometry":{"type":"Point","coordinates":[-1.0402461463030017,54.02854080628089]}},{"type":"Feature","properties":{"OBJECTID":1232,"Street":"The Village","Location":"Os 92","Ward":"Strensall","BinType":"Dog and litter bin (small)"},"geometry":{"type":"Point","coordinates":[-1.0301867243063216,54.04030629122768]}},{"type":"Feature","properties":{"OBJECTID":1233,"Street":"The Village","Location":"Os Half Moon","Ward":"Strensall","BinType":"Dog and litter bin (small)"},"geometry":{"type":"Point","coordinates":[-1.0374444084092103,54.03946578946265]}},{"type":"Feature","properties":{"OBJECTID":1234,"Street":"The Village","Location":"Opp No 60 At Bus Stop","Ward":"Strensall","BinType":"Dog and litter bin (small)"},"geometry":{"type":"Point","coordinates":[-1.0036174913178972,53.99424112578076]}},{"type":"Feature","properties":{"OBJECTID":1235,"Street":"The Village","Location":"Os Post Office","Ward":"Strensall","BinType":"Dog and litter bin (small)"},"geometry":{"type":"Point","coordinates":[-1.033354238687333,54.04002619629146]}},{"type":"Feature","properties":{"OBJECTID":1236,"Street":"The Village","Location":"Os Stockton On The Forest Primary School","Ward":"Strensall","BinType":"Dog and litter bin (small)"},"geometry":{"type":"Point","coordinates":[-0.9990216421064679,53.99697127625934]}},{"type":"Feature","properties":{"OBJECTID":1237,"Street":"The Village","Location":"Os Village Hall Opp Monreith","Ward":"Strensall","BinType":"Dog and litter bin (small)"},"geometry":{"type":"Point","coordinates":[-0.9949555741248622,53.99984949123571]}},{"type":"Feature","properties":{"OBJECTID":1238,"Street":"West End","Location":"Jw Road To Haxby","Ward":"Strensall","BinType":"Dog and litter bin (small)"},"geometry":{"type":"Point","coordinates":[-1.043452359401259,54.036511731099694]}},{"type":"Feature","properties":{"OBJECTID":1239,"Street":"West End","Location":"Jw Road To Haxby","Ward":"Strensall","BinType":"Dog waste bin only"},"geometry":{"type":"Point","coordinates":[-1.043509300266851,54.03669194356833]}},{"type":"Feature","properties":{"OBJECTID":1214,"Street":"Stockton Lane","Location":"Opp Jw Poplars Close","Ward":"Strensall","BinType":"Dog and litter bin (small)"},"geometry":{"type":"Point","coordinates":[-1.0064419669194349,53.992853373694594]}},{"type":"Feature","properties":{"OBJECTID":1215,"Street":"Stone Riggs","Location":"In Playground Opp 39A","Ward":"Strensall","BinType":"Dog and litter bin (small)"},"geometry":{"type":"Point","coordinates":[-1.0015940938270291,53.993379459435126]}},{"type":"Feature","properties":{"OBJECTID":1216,"Street":"Stone Riggs","Location":"Os 64 At Jw Stocktob Lane","Ward":"Strensall","BinType":"Dog and litter bin (small)"},"geometry":{"type":"Point","coordinates":[-1.0024416813521726,53.994932445078426]}},{"type":"Feature","properties":{"OBJECTID":1217,"Street":"Strensall Road","Location":"Bus Stop Nr Nat Speed Limit Opp Substation","Ward":"Strensall","BinType":"Dog and litter bin (small)"},"geometry":{"type":"Point","coordinates":[-1.0447355899516748,54.0211614490057]}},{"type":"Feature","properties":{"OBJECTID":1218,"Street":"Strensall Road","Location":"Bus Stop Opp Cheshire Avenue","Ward":"Strensall","BinType":"Dog and litter bin (small)"},"geometry":{"type":"Point","coordinates":[-1.0424649666097994,54.02565536875855]}},{"type":"Feature","properties":{"OBJECTID":1219,"Street":"Strensall Road","Location":"Bus Stop Opp Farriers Chase","Ward":"Strensall","BinType":"Dog and litter bin (small)"},"geometry":{"type":"Point","coordinates":[-1.041200190672155,54.02688563619078]}},{"type":"Feature","properties":{"OBJECTID":1220,"Street":"Strensall Road","Location":"Os Wayside Farm","Ward":"Strensall","BinType":"Dog and litter bin (small)"},"geometry":{"type":"Point","coordinates":[-1.0547152929807078,54.0071381243055]}},{"type":"Feature","properties":{"OBJECTID":1221,"Street":"Strensall Road","Location":"Os Willow Grove Vet","Ward":"Strensall","BinType":"Dog and litter bin (small)"},"geometry":{"type":"Point","coordinates":[-1.0544223599271236,54.007944742526725]}},{"type":"Feature","properties":{"OBJECTID":1223,"Street":"The Village","Location":"Bus Stop Os 60","Ward":"Strensall","BinType":"Dog and litter bin (small)"},"geometry":{"type":"Point","coordinates":[-1.0036795668922867,53.99419669985534]}},{"type":"Feature","properties":{"OBJECTID":1224,"Street":"The Village","Location":"Bus Stop Os The Fox Inn Opp School","Ward":"Strensall","BinType":"Dog and litter bin (small)"},"geometry":{"type":"Point","coordinates":[-0.9988053152522108,53.997086319952224]}},{"type":"Feature","properties":{"OBJECTID":1225,"Street":"The Village","Location":"Jw Northfields","Ward":"Strensall","BinType":"Dog and litter bin (small)"},"geometry":{"type":"Point","coordinates":[-1.0311475481279495,54.04035897403523]}},{"type":"Feature","properties":{"OBJECTID":1226,"Street":"The Village","Location":"Jw Southfields Road","Ward":"Strensall","BinType":"Dog and litter bin (small)"},"geometry":{"type":"Point","coordinates":[-1.0372658616328891,54.038601514057454]}},{"type":"Feature","properties":{"OBJECTID":1229,"Street":"The Village","Location":"Os 20","Ward":"Strensall","BinType":"Dog and litter bin (large)"},"geometry":{"type":"Point","coordinates":[-1.036048832488964,54.03972425310173]}},{"type":"Feature","properties":{"OBJECTID":1231,"Street":"The Village","Location":"Os 53","Ward":"Strensall","BinType":"Dog and litter bin (large)"},"geometry":{"type":"Point","coordinates":[-1.0344694029664185,54.040008188904494]}},{"type":"Feature","properties":{"OBJECTID":1228,"Street":"The Village","Location":"os 130","Ward":"Strensall","BinType":"Dog and litter bin (small)"},"geometry":{"type":"Point","coordinates":[-1.0271145519032845,54.04042529021629]}},{"type":"Feature","properties":{"OBJECTID":1227,"Street":"The Village","Location":"Opp 2 De Mauley Place","Ward":"Strensall","BinType":"Dog waste bin only"},"geometry":{"type":"Point","coordinates":[-1.0020522414763797,53.9952707599598]}},{"type":"Feature","properties":{"OBJECTID":1205,"Street":"Park Gate","Location":"By Bus Terminal","Ward":"Strensall","BinType":"Dog and litter bin (small)"},"geometry":{"type":"Point","coordinates":[-1.0260750184200413,54.04112692914096]}},{"type":"Feature","properties":{"OBJECTID":1206,"Street":"Pasture Close","Location":"Green Space Next To 19","Ward":"Strensall","BinType":"Dog and litter bin (large)"},"geometry":{"type":"Point","coordinates":[-1.0378535912163547,54.031002377193126]}},{"type":"Feature","properties":{"OBJECTID":1207,"Street":"Scott Moncrieff Road","Location":"Jw Strensall Road","Ward":"Strensall","BinType":"Dog and litter bin (small)"},"geometry":{"type":"Point","coordinates":[-1.0305729307992268,54.03223818600032]}},{"type":"Feature","properties":{"OBJECTID":1209,"Street":"Scott Moncrieff Road","Location":"Parking Area","Ward":"Strensall","BinType":"Dog and litter bin (large)"},"geometry":{"type":"Point","coordinates":[-1.0309488678713736,54.03051551938246]}},{"type":"Feature","properties":{"OBJECTID":1210,"Street":"Sheriff Hutton Road","Location":"By Bridge","Ward":"Strensall","BinType":"Dog and litter bin (small)"},"geometry":{"type":"Point","coordinates":[-1.035188934811941,54.04058919340106]}},{"type":"Feature","properties":{"OBJECTID":1211,"Street":"Sheriff Hutton Road","Location":"In Burial Ground","Ward":"Strensall","BinType":"Dog and litter bin (small)"},"geometry":{"type":"Point","coordinates":[-1.035081743893144,54.0432397882267]}},{"type":"Feature","properties":{"OBJECTID":1212,"Street":"Stockton Lane","Location":"Bull commercial Centre","Ward":"Strensall","BinType":"Dog and litter bin (large)"},"geometry":{"type":"Point","coordinates":[-1.0108813229185023,53.990894628387075]}},{"type":"Feature","properties":{"OBJECTID":1213,"Street":"Stockton Lane","Location":"By Stockton Forest Sign Os Golf Club","Ward":"Strensall","BinType":"Dog and litter bin (small)"},"geometry":{"type":"Point","coordinates":[-1.0081851059619398,53.99203187623093]}},{"type":"Feature","properties":{"OBJECTID":1201,"Street":"Moor Lane","Location":"Opp 111","Ward":"Strensall","BinType":"Dog and litter bin (large)"},"geometry":{"type":"Point","coordinates":[-1.0321311925743242,54.03219680766569]}},{"type":"Feature","properties":{"OBJECTID":1202,"Street":"Moor Lane","Location":"Opp 111","Ward":"Strensall","BinType":"Dog and litter bin (large)"},"geometry":{"type":"Point","coordinates":[-1.0321311925743242,54.03219680766569]}},{"type":"Feature","properties":{"OBJECTID":1204,"Street":"Northfields","Location":"Playground Next To Community Centre","Ward":"Strensall","BinType":"Dog and litter bin (small)"},"geometry":{"type":"Point","coordinates":[-1.0302298097501545,54.04107960553404]}},{"type":"Feature","properties":{"OBJECTID":1203,"Street":"Northfields","Location":"Jw The Village","Ward":"Strensall","BinType":"Dog waste bin only"},"geometry":{"type":"Point","coordinates":[-1.0309800205646125,54.040339648580265]}},{"type":"Feature","properties":{"OBJECTID":1197,"Street":"Lords Moor Lane","Location":"Car Park Os Training Area","Ward":"Strensall","BinType":"Dog and litter bin (large)"},"geometry":{"type":"Point","coordinates":[-1.010868786662999,54.04226116757762]}},{"type":"Feature","properties":{"OBJECTID":1198,"Street":"Lords Moor Lane","Location":"Os Greensleeves","Ward":"Strensall","BinType":"Dog waste bin only"},"geometry":{"type":"Point","coordinates":[-1.0254358760460216,54.039072490227596]}},{"type":"Feature","properties":{"OBJECTID":1199,"Street":"Middlecroft Drive","Location":"Opp 64 By Snicket","Ward":"Strensall","BinType":"Dog waste bin only"},"geometry":{"type":"Point","coordinates":[-1.041331658224712,54.034445586492524]}},{"type":"Feature","properties":{"OBJECTID":1200,"Street":"Moor Lane","Location":"Jw The Willows","Ward":"Strensall","BinType":"Dog waste bin only"},"geometry":{"type":"Point","coordinates":[-1.0349574913631205,54.03409800898979]}},{"type":"Feature","properties":{"OBJECTID":1188,"Street":"Earswick Chase","Location":"Village Hall","Ward":"Strensall","BinType":"Dog and litter bin (large)"},"geometry":{"type":"Point","coordinates":[-1.0588421996643451,54.008851255642334]}},{"type":"Feature","properties":{"OBJECTID":1189,"Street":"Earswick Village","Location":"Bridge Nr Stream","Ward":"Strensall","BinType":"Dog and litter bin (large)"},"geometry":{"type":"Point","coordinates":[-1.0604421413434169,54.007596458322965]}},{"type":"Feature","properties":{"OBJECTID":1190,"Street":"Heath Ride","Location":"os 5 Lakeside Gardens","Ward":"Strensall","BinType":"Dog and litter bin (large)"},"geometry":{"type":"Point","coordinates":[-1.0260326674384688,54.04424541812093]}},{"type":"Feature","properties":{"OBJECTID":1192,"Street":"Lock house Lane","Location":"Car Park At End","Ward":"Strensall","BinType":"Dog and litter bin (small)"},"geometry":{"type":"Point","coordinates":[-1.0577021647509914,54.011358969955324]}},{"type":"Feature","properties":{"OBJECTID":1193,"Street":"Lock house Lane","Location":"Car Park At End","Ward":"Strensall","BinType":"Dog and litter bin (large)"},"geometry":{"type":"Point","coordinates":[-1.0579263561561048,54.01156745076572]}},{"type":"Feature","properties":{"OBJECTID":1194,"Street":"Lock House Lane","Location":"Car Park At End","Ward":"Strensall","BinType":"Dog and litter bin (large)"},"geometry":{"type":"Point","coordinates":[-1.0579263561561048,54.01156745076572]}},{"type":"Feature","properties":{"OBJECTID":1195,"Street":"Lords Moor Lane","Location":"Car Park Os Training Area","Ward":"Strensall","BinType":"Dog and litter bin (large)"},"geometry":{"type":"Point","coordinates":[-1.010868786662999,54.04226116757762]}},{"type":"Feature","properties":{"OBJECTID":1196,"Street":"Lords Moor Lane","Location":"Car Park Os Training Area","Ward":"Strensall","BinType":"Dog and litter bin (large)"},"geometry":{"type":"Point","coordinates":[-1.010868786662999,54.04226116757762]}},{"type":"Feature","properties":{"OBJECTID":1186,"Street":"Durlston Drive","Location":"By Tennis Court","Ward":"Strensall","BinType":"Dog and litter bin (small)"},"geometry":{"type":"Point","coordinates":[-1.0428006821080065,54.032974268295526]}},{"type":"Feature","properties":{"OBJECTID":1187,"Street":"Earswick Chase","Location":"Next To Village Hall","Ward":"Strensall","BinType":"Dog and litter bin (large)"},"geometry":{"type":"Point","coordinates":[-1.0589552780019489,54.00857351231328]}},{"type":"Feature","properties":{"OBJECTID":1185,"Street":"Church Lane","Location":"Os 11","Ward":"Strensall","BinType":"Dog and litter bin (small)"},"geometry":{"type":"Point","coordinates":[-1.0394944535892565,54.03863730667856]}},{"type":"Feature","properties":{"OBJECTID":1184,"Street":"Chaldon Close","Location":"End Of Road","Ward":"Strensall","BinType":"Dog waste bin only"},"geometry":{"type":"Point","coordinates":[-1.0439649154754675,54.03080843460362]}},{"type":"Feature","properties":{"OBJECTID":1181,"Street":"Barley rise","Location":"os Costcutter, 16-18","Ward":"Strensall","BinType":"Dog and litter bin (large)"},"geometry":{"type":"Point","coordinates":[-1.0403350206813062,54.03197492940673]}},{"type":"Feature","properties":{"OBJECTID":1179,"Street":"Wetherby Road","Location":"Os Bed And Breakfast At Southern Entry To Rufforth","Ward":"Rural West York","BinType":"Dog waste bin only"},"geometry":{"type":"Point","coordinates":[-1.191131472896318,53.954834579203165]}},{"type":"Feature","properties":{"OBJECTID":1182,"Street":"Brecks Lane","Location":"Jw Thonpson Street","Ward":"Strensall","BinType":"Dog waste bin only"},"geometry":{"type":"Point","coordinates":[-1.0226521233745316,54.041872133654856]}},{"type":"Feature","properties":{"OBJECTID":1183,"Street":"Carrbank Lane","Location":"Public Bridleway","Ward":"Strensall","BinType":"Dog waste bin only"},"geometry":{"type":"Point","coordinates":[-0.994958293210223,53.997836184450236]}},{"type":"Feature","properties":{"OBJECTID":1177,"Street":"Wetherby Road","Location":"On New Public Footpath To Village","Ward":"Rural West York","BinType":"Dog and litter bin (large)"},"geometry":{"type":"Point","coordinates":[-1.1891314665511719,53.95580978066368]}},{"type":"Feature","properties":{"OBJECTID":1178,"Street":"Wetherby Road","Location":"Opp Rufforth Institute","Ward":"Rural West York","BinType":"Dog and litter bin (small)"},"geometry":{"type":"Point","coordinates":[-1.1969339988178636,53.95660817503405]}},{"type":"Feature","properties":{"OBJECTID":1175,"Street":"Wetherby Road","Location":"Near To Jw Bradley Lane","Ward":"Rural West York","BinType":"Dog and litter bin (small)"},"geometry":{"type":"Point","coordinates":[-1.193370644976365,53.9548855812163]}},{"type":"Feature","properties":{"OBJECTID":1176,"Street":"Wetherby Road","Location":"Opp Rose Cottage","Ward":"Rural West York","BinType":"Dog waste bin only"},"geometry":{"type":"Point","coordinates":[-1.1954919208713852,53.95551997162212]}},{"type":"Feature","properties":{"OBJECTID":1173,"Street":"Westwood Lane","Location":"Beginning Of Footpath","Ward":"Rural West York","BinType":"Dog and litter bin (large)"},"geometry":{"type":"Point","coordinates":[-1.1689623123020676,53.92857310143297]}},{"type":"Feature","properties":{"OBJECTID":1174,"Street":"Wetherby Road","Location":"O/s 142 In Snicket","Ward":"Westfield","BinType":"Dog waste bin only"},"geometry":{"type":"Point","coordinates":[-1.1432828859726225,53.956201737059445]}},{"type":"Feature","properties":{"OBJECTID":1171,"Street":"The Village","Location":"Ped Entrance To Field","Ward":"Rural West York","BinType":"Dog and litter bin (small)"},"geometry":{"type":"Point","coordinates":[-1.1325357535335643,54.0011365423989]}},{"type":"Feature","properties":{"OBJECTID":1172,"Street":"Westfield Lane","Location":"Os York House Near Jw Hodgson Lane","Ward":"Rural West York","BinType":"Dog waste bin only"},"geometry":{"type":"Point","coordinates":[-1.1569071728855473,53.978111961653084]}},{"type":"Feature","properties":{"OBJECTID":1169,"Street":"The Village","Location":"Opp Green Space Triangle","Ward":"Rural West York","BinType":"Dog and litter bin (small)"},"geometry":{"type":"Point","coordinates":[-1.1331016394833928,54.00106871996078]}},{"type":"Feature","properties":{"OBJECTID":1170,"Street":"The Village","Location":"Os Skeltonsurgery","Ward":"Rural West York","BinType":"Dog and litter bin (small)"},"geometry":{"type":"Point","coordinates":[-1.1350487480317064,54.000606380438114]}},{"type":"Feature","properties":{"OBJECTID":1168,"Street":"Sycamore Close","Location":"Jw Burtree Ave","Ward":"Rural West York","BinType":"Dog waste bin only"},"geometry":{"type":"Point","coordinates":[-1.1293405446840428,53.99706886070976]}},{"type":"Feature","properties":{"OBJECTID":1165,"Street":"Shirbutt Lane","Location":"At Play Area","Ward":"Rural West York","BinType":"Dog and litter bin (small)"},"geometry":{"type":"Point","coordinates":[-1.204567155642691,53.973529355811124]}},{"type":"Feature","properties":{"OBJECTID":1164,"Street":"Shirbutt Lane","Location":"Opp Pond","Ward":"Rural West York","BinType":"Dog waste bin only"},"geometry":{"type":"Point","coordinates":[-1.199670378993817,53.97367661168925]}},{"type":"Feature","properties":{"OBJECTID":1162,"Street":"Shipton Road","Location":"Layby By Field Manor","Ward":"Rural West York","BinType":"Dog and litter bin (large)"},"geometry":{"type":"Point","coordinates":[-1.1302632292317272,53.9923208987948]}},{"type":"Feature","properties":{"OBJECTID":1163,"Street":"Shirbutt Lane","Location":"At End Of Road","Ward":"Rural West York","BinType":"Dog waste bin only"},"geometry":{"type":"Point","coordinates":[-1.193957467487161,53.975031573109014]}},{"type":"Feature","properties":{"OBJECTID":1160,"Street":"School Lane","Location":"Next To Old Water Pump","Ward":"Rural West York","BinType":"Dog and litter bin (small)"},"geometry":{"type":"Point","coordinates":[-1.183781502949754,53.9238481166409]}},{"type":"Feature","properties":{"OBJECTID":1161,"Street":"Shipton Road","Location":"By Shelter Nr Southfield Pond","Ward":"Rural West York","BinType":"Dog and litter bin (small)"},"geometry":{"type":"Point","coordinates":[-1.132477988973346,53.995842211261305]}},{"type":"Feature","properties":{"OBJECTID":1159,"Street":"School Lane","Location":"Green Square In Front Of Rose And Crown","Ward":"Rural West York","BinType":"Dog and litter bin (small)"},"geometry":{"type":"Point","coordinates":[-1.1838304891406328,53.92445963639597]}},{"type":"Feature","properties":{"OBJECTID":1157,"Street":"Road To Harewood Whin","Location":"Towards Shooting Club","Ward":"Rural West York","BinType":"Dog waste bin only"},"geometry":{"type":"Point","coordinates":[-1.1835795868175527,53.95995161007134]}},{"type":"Feature","properties":{"OBJECTID":1152,"Street":"Millfield Lane","Location":"Near To 81 Near Letterbox","Ward":"Rural West York","BinType":"Dog and litter bin (large)"},"geometry":{"type":"Point","coordinates":[-1.1422102674777967,53.98247501509776]}},{"type":"Feature","properties":{"OBJECTID":1154,"Street":"Millfield Lane","Location":"Os 20","Ward":"Rural West York","BinType":"Dog and litter bin (small)"},"geometry":{"type":"Point","coordinates":[-1.1459883867209093,53.98638472257424]}},{"type":"Feature","properties":{"OBJECTID":1155,"Street":"Millfield Lane","Location":"Os 52 Next To Bus Stop","Ward":"Rural West York","BinType":"Dog and litter bin (small)"},"geometry":{"type":"Point","coordinates":[-1.1438228667113837,53.9841492881928]}},{"type":"Feature","properties":{"OBJECTID":1156,"Street":"Road To Harewood Whin","Location":"Shooting Club","Ward":"Rural West York","BinType":"Dog waste bin only"},"geometry":{"type":"Point","coordinates":[-1.18208330122763,53.9561934427257]}},{"type":"Feature","properties":{"OBJECTID":1150,"Street":"Millfield Lane","Location":"Near 40 Signs","Ward":"Rural West York","BinType":"Dog and litter bin (small)"},"geometry":{"type":"Point","coordinates":[-1.138483965542906,53.978304903476676]}},{"type":"Feature","properties":{"OBJECTID":1151,"Street":"Millfield Lane","Location":"Near To 81 And Letterbox","Ward":"Rural West York","BinType":"Dog and litter bin (large)"},"geometry":{"type":"Point","coordinates":[-1.1422102674777967,53.98247501509776]}},{"type":"Feature","properties":{"OBJECTID":1148,"Street":"Millfield Lane","Location":"O/s Caravan Park","Ward":"Rural West York","BinType":"Dog waste bin only"},"geometry":{"type":"Point","coordinates":[-1.1399924932826142,53.97983467638519]}},{"type":"Feature","properties":{"OBJECTID":1149,"Street":"Millfield Lane","Location":"Jw After Bridge","Ward":"Rural West York","BinType":"Dog waste bin only"},"geometry":{"type":"Point","coordinates":[-1.1375104497238548,53.9774530507065]}},{"type":"Feature","properties":{"OBJECTID":1146,"Street":"Millfield Gardens","Location":"Opp 61 Next To Green Space","Ward":"Rural West York","BinType":"Dog and litter bin (small)"},"geometry":{"type":"Point","coordinates":[-1.1424409785391043,53.98460681354158]}},{"type":"Feature","properties":{"OBJECTID":1147,"Street":"Millfield Lane","Location":"Jnc Low Poppleton Lane o/s Factory","Ward":"Rural West York","BinType":"Dog waste bin only"},"geometry":{"type":"Point","coordinates":[-1.1325651223799218,53.971826926442056]}},{"type":"Feature","properties":{"OBJECTID":1145,"Street":"Mill Lane","Location":"Near Street Sign And Weir","Ward":"Rural West York","BinType":"Dog and litter bin (small)"},"geometry":{"type":"Point","coordinates":[-1.184843635343067,53.92482603680999]}},{"type":"Feature","properties":{"OBJECTID":1144,"Street":"Main Street","Location":"Up Track Past Pump House","Ward":"Rural West York","BinType":"Dog waste bin only"},"geometry":{"type":"Point","coordinates":[-1.1523746353143376,53.988074718597474]}},{"type":"Feature","properties":{"OBJECTID":1127,"Street":"Long Ridge Lane","Location":"Os 2A Next To Bus Stop","Ward":"Rural West York","BinType":"Dog and litter bin (small)"},"geometry":{"type":"Point","coordinates":[-1.1425406043910924,53.98198303252401]}},{"type":"Feature","properties":{"OBJECTID":1128,"Street":"Main Street","Location":"At The Crossing","Ward":"Rural West York","BinType":"Dog and litter bin (large)"},"geometry":{"type":"Point","coordinates":[-1.149099123580227,53.975926791638614]}},{"type":"Feature","properties":{"OBJECTID":1129,"Street":"Main Street","Location":"At The Crossing","Ward":"Rural West York","BinType":"Dog and litter bin (large)"},"geometry":{"type":"Point","coordinates":[-1.149099123580227,53.975926791638614]}},{"type":"Feature","properties":{"OBJECTID":1131,"Street":"Main Street","Location":"Bus Stop Near Riverside Walk","Ward":"Rural West York","BinType":"Dog and litter bin (small)"},"geometry":{"type":"Point","coordinates":[-1.1517370920421437,53.987926414332065]}},{"type":"Feature","properties":{"OBJECTID":1132,"Street":"Main Street","Location":"Entrance To Community Centre","Ward":"Rural West York","BinType":"Dog and litter bin (small)"},"geometry":{"type":"Point","coordinates":[-1.1557986654839658,53.985429383853095]}},{"type":"Feature","properties":{"OBJECTID":1133,"Street":"Main Street","Location":"Entrance To Community Centre Play Area","Ward":"Rural West York","BinType":"Litter bin only (large)"},"geometry":{"type":"Point","coordinates":[-1.156399155201074,53.98514598403815]}},{"type":"Feature","properties":{"OBJECTID":1134,"Street":"Main Street","Location":"Next To Bus Stop Close To Ingham House","Ward":"Rural West York","BinType":"Dog and litter bin (small)"},"geometry":{"type":"Point","coordinates":[-1.152678192784782,53.97987982357975]}},{"type":"Feature","properties":{"OBJECTID":1135,"Street":"Main Street","Location":"Next To War Memorial By River","Ward":"Rural West York","BinType":"Dog and litter bin (small)"},"geometry":{"type":"Point","coordinates":[-1.1506596009617778,53.98841314533681]}},{"type":"Feature","properties":{"OBJECTID":1140,"Street":"Main Street","Location":"Os 68 Next To Bus Stop","Ward":"Rural West York","BinType":"Dog and litter bin (small)"},"geometry":{"type":"Point","coordinates":[-1.1603164200152154,53.92910619631774]}},{"type":"Feature","properties":{"OBJECTID":1141,"Street":"Main Street","Location":"Os Lord Nelson Pub Next To Bus Stop","Ward":"Rural West York","BinType":"Dog and litter bin (small)"},"geometry":{"type":"Point","coordinates":[-1.1483233126581072,53.98780341095786]}},{"type":"Feature","properties":{"OBJECTID":1142,"Street":"Main Street","Location":"Outside Poppleton Ousebank Primary","Ward":"Rural West York","BinType":"Dog and litter bin (large)"},"geometry":{"type":"Point","coordinates":[-1.1545508961083781,53.984539793752]}},{"type":"Feature","properties":{"OBJECTID":1143,"Street":"Main Street","Location":"Opp Chantry Gap At Bus Stop","Ward":"Rural West York","BinType":"Dog and litter bin (small)"},"geometry":{"type":"Point","coordinates":[-1.1537817793189153,53.98185596509873]}},{"type":"Feature","properties":{"OBJECTID":1138,"Street":"Main Street","Location":"Opp Surgery On Green","Ward":"Rural West York","BinType":"Dog and litter bin (small)"},"geometry":{"type":"Point","coordinates":[-1.1530979785429898,53.980233313092526]}},{"type":"Feature","properties":{"OBJECTID":1139,"Street":"Main Street","Location":"Opposite Pond","Ward":"Rural West York","BinType":"Dog and litter bin (small)"},"geometry":{"type":"Point","coordinates":[-1.1839986769456745,53.924424826724795]}},{"type":"Feature","properties":{"OBJECTID":1136,"Street":"Main Street","Location":"Opp 54 Next To Pond","Ward":"Rural West York","BinType":"Dog and litter bin (large)"},"geometry":{"type":"Point","coordinates":[-1.158626328390633,53.92908538406369]}},{"type":"Feature","properties":{"OBJECTID":1137,"Street":"Main Street","Location":"Opp 224","Ward":"Rural West York","BinType":"Dog waste bin only"},"geometry":{"type":"Point","coordinates":[-1.155937558621962,53.929497950540814]}},{"type":"Feature","properties":{"OBJECTID":1119,"Street":"Hodgson Lane","Location":"On Green","Ward":"Rural West York","BinType":"Dog and litter bin (small)"},"geometry":{"type":"Point","coordinates":[-1.1531755450257941,53.97941595311851]}},{"type":"Feature","properties":{"OBJECTID":1120,"Street":"Hodgson Lane","Location":"Outside Manor Farm","Ward":"Rural West York","BinType":"Dog and litter bin (small)"},"geometry":{"type":"Point","coordinates":[-1.1534461478467668,53.97960660673701]}},{"type":"Feature","properties":{"OBJECTID":1121,"Street":"Jacksons Walk","Location":"Start Of Road By Post Box","Ward":"Rural West York","BinType":"Dog and litter bin (small)"},"geometry":{"type":"Point","coordinates":[-1.1837935521599456,53.924791943029206]}},{"type":"Feature","properties":{"OBJECTID":1122,"Street":"Jacksons Walk","Location":"Green Area In Front Of Prison Entrance","Ward":"Rural West York","BinType":"Dog and litter bin (small)"},"geometry":{"type":"Point","coordinates":[-1.1840018127942467,53.92504502294568]}},{"type":"Feature","properties":{"OBJECTID":1123,"Street":"Long Ridge Lane","Location":"At The Bus Stop Os 24A","Ward":"Rural West York","BinType":"Dog and litter bin (small)"},"geometry":{"type":"Point","coordinates":[-1.1457983137602903,53.98076588319886]}},{"type":"Feature","properties":{"OBJECTID":1124,"Street":"Long Ridge Lane","Location":"At The Jw Station Road","Ward":"Rural West York","BinType":"Dog and litter bin (small)"},"geometry":{"type":"Point","coordinates":[-1.1515675022386014,53.97900914304829]}},{"type":"Feature","properties":{"OBJECTID":1126,"Street":"Long Ridge Lane","Location":"Bus Stop Opp 163","Ward":"Rural West York","BinType":"Dog and litter bin (small)"},"geometry":{"type":"Point","coordinates":[-1.1507398414051688,53.979219010221286]}},{"type":"Feature","properties":{"OBJECTID":1125,"Street":"Long Ridge Lane","Location":"At The Jw With Linton Road","Ward":"Rural West York","BinType":"Dog waste bin only"},"geometry":{"type":"Point","coordinates":[-1.145397676325445,53.98096975934733]}},{"type":"Feature","properties":{"OBJECTID":1117,"Street":"Fairfields Drive","Location":"Os 52","Ward":"Rural West York","BinType":"Dog and litter bin (small)"},"geometry":{"type":"Point","coordinates":[-1.1306445672377894,53.99891184301617]}},{"type":"Feature","properties":{"OBJECTID":1118,"Street":"Fairfields Drive","Location":"Os 69","Ward":"Rural West York","BinType":"Dog and litter bin (small)"},"geometry":{"type":"Point","coordinates":[-1.1281647073796415,53.99858829576386]}},{"type":"Feature","properties":{"OBJECTID":1115,"Street":"Fairfields Drive","Location":"Opp 52","Ward":"Rural West York","BinType":"Dog waste bin only"},"geometry":{"type":"Point","coordinates":[-1.1309287609357686,53.99918353664991]}},{"type":"Feature","properties":{"OBJECTID":1116,"Street":"Fairfields Drive","Location":"Opp 52","Ward":"Rural West York","BinType":"Dog waste bin only"},"geometry":{"type":"Point","coordinates":[-1.1309287609357686,53.99918353664991]}},{"type":"Feature","properties":{"OBJECTID":1113,"Street":"Esk Drive","Location":"In Playground","Ward":"Rural West York","BinType":"Dog and litter bin (large)"},"geometry":{"type":"Point","coordinates":[-1.1336907994768217,53.97709302754374]}},{"type":"Feature","properties":{"OBJECTID":1114,"Street":"Fairfields Drive","Location":"Bus Stop At Jw Fairfields Drive","Ward":"Rural West York","BinType":"Dog and litter bin (small)"},"geometry":{"type":"Point","coordinates":[-1.132477988973346,53.995842211261305]}},{"type":"Feature","properties":{"OBJECTID":1112,"Street":"Esk Drive","Location":"Centre Of Playground","Ward":"Rural West York","BinType":"Dog and litter bin (large)"},"geometry":{"type":"Point","coordinates":[-1.1336907994768217,53.97709302754374]}},{"type":"Feature","properties":{"OBJECTID":1111,"Street":"Esk Drive","Location":"Between 26 And Play Area","Ward":"Rural West York","BinType":"Dog waste bin only"},"geometry":{"type":"Point","coordinates":[-1.1336026843210725,53.97693060845575]}},{"type":"Feature","properties":{"OBJECTID":1110,"Street":"Dikelands Lane","Location":"Opp Jw Montague Walk","Ward":"Rural West York","BinType":"Dog and litter bin (small)"},"geometry":{"type":"Point","coordinates":[-1.151311685493127,53.98409453469165]}},{"type":"Feature","properties":{"OBJECTID":1109,"Street":"Dikelands Lane","Location":"At The Jw Long Ridge Lane","Ward":"Rural West York","BinType":"Dog waste bin only"},"geometry":{"type":"Point","coordinates":[-1.1488032892583957,53.97996929194971]}},{"type":"Feature","properties":{"OBJECTID":1107,"Street":"Church Lane","Location":"Opp St Everildas Church","Ward":"Rural West York","BinType":"Dog and litter bin (large)"},"geometry":{"type":"Point","coordinates":[-1.1404200676182243,53.98795388575851]}},{"type":"Feature","properties":{"OBJECTID":1108,"Street":"Dikelands Lane","Location":"At Jw Main Street","Ward":"Rural West York","BinType":"Dog waste bin only"},"geometry":{"type":"Point","coordinates":[-1.153957867776485,53.984454729909544]}},{"type":"Feature","properties":{"OBJECTID":1106,"Street":"Church Lane","Location":"Opp St Everildas Church","Ward":"Rural West York","BinType":"Dog and litter bin (small)"},"geometry":{"type":"Point","coordinates":[-1.1403893844720154,53.98796265434869]}},{"type":"Feature","properties":{"OBJECTID":1105,"Street":"Chantry Gap","Location":"Jw Main Street","Ward":"Rural West York","BinType":"Dog waste bin only"},"geometry":{"type":"Point","coordinates":[-1.1534354728912115,53.9816378153218]}},{"type":"Feature","properties":{"OBJECTID":1104,"Street":"Brecksfield","Location":"In Centre of Play Area","Ward":"Rural West York","BinType":"Dog and litter bin (small)"},"geometry":{"type":"Point","coordinates":[-1.128642481180151,53.99908609770231]}},{"type":"Feature","properties":{"OBJECTID":1103,"Street":"Brecksfield","Location":"Os School By Junction","Ward":"Rural West York","BinType":"Dog waste bin only"},"geometry":{"type":"Point","coordinates":[-1.128753437498512,53.999617192086866]}},{"type":"Feature","properties":{"OBJECTID":1095,"Street":"Poppleton Bar Park & Ride","Location":"Either Side Of Office","Ward":"Rural West York","BinType":"Dog and litter bin (small)"},"geometry":{"type":"Point","coordinates":[-1.1511158262585712,53.97272334932588]}},{"type":"Feature","properties":{"OBJECTID":1096,"Street":"Poppleton Bar Park & Ride","Location":"Either Side Of Office","Ward":"Rural West York","BinType":"Dog and litter bin (small)"},"geometry":{"type":"Point","coordinates":[-1.1506313216259505,53.97255814274079]}},{"type":"Feature","properties":{"OBJECTID":1097,"Street":"Allerton Drive","Location":"Allerton Drive Shops","Ward":"Rural West York","BinType":"Dog and litter bin (large)"},"geometry":{"type":"Point","coordinates":[-1.14891106684583,53.98515612046153]}},{"type":"Feature","properties":{"OBJECTID":1098,"Street":"Allerton Drive","Location":"Next To Jw Ebor Way","Ward":"Rural West York","BinType":"Dog and litter bin (large)"},"geometry":{"type":"Point","coordinates":[-1.1485074318334656,53.98475779115768]}},{"type":"Feature","properties":{"OBJECTID":1102,"Street":"Brecksfield","Location":"Jw Fairfields Drive","Ward":"Rural West York","BinType":"Dog and litter bin (large)"},"geometry":{"type":"Point","coordinates":[-1.129720765717918,53.99931860660769]}},{"type":"Feature","properties":{"OBJECTID":1101,"Street":"Black Dykes Lane","Location":"Opp Collingwood House","Ward":"Rural West York","BinType":"Dog waste bin only"},"geometry":{"type":"Point","coordinates":[-1.1548993366379867,53.97711817233645]}},{"type":"Feature","properties":{"OBJECTID":1099,"Street":"Allerton Drive","Location":"Next To Jw Ebor Way","Ward":"Rural West York","BinType":"Dog and litter bin (large)"},"geometry":{"type":"Point","coordinates":[-1.1485074318334656,53.98475779115768]}},{"type":"Feature","properties":{"OBJECTID":1100,"Street":"Askham Fields Lane","Location":"Footpath Next To 21","Ward":"Rural West York","BinType":"Dog waste bin only"},"geometry":{"type":"Point","coordinates":[-1.159731967008948,53.92711575009058]}},{"type":"Feature","properties":{"OBJECTID":1088,"Street":"St Marks Grove","Location":"End Of Road By Field","Ward":"Clifton","BinType":"Dog and litter bin (small)"},"geometry":{"type":"Point","coordinates":[-1.1108030637546091,53.98647116447275]}},{"type":"Feature","properties":{"OBJECTID":1091,"Street":"Woodland Chase","Location":"Ped Access To Clifton Backies","Ward":"Clifton","BinType":"Dog and litter bin (large)"},"geometry":{"type":"Point","coordinates":[-1.0936238681498187,53.982567899788336]}},{"type":"Feature","properties":{"OBJECTID":1093,"Street":"Bland Lane","Location":"Halfway Along Road","Ward":"Rural West York","BinType":"Dog waste bin only"},"geometry":{"type":"Point","coordinates":[-1.1459674342882396,53.958324041574926]}},{"type":"Feature","properties":{"OBJECTID":1094,"Street":"Knapton Lane","Location":"Just Before You Reach Knapton","Ward":"Rural West York","BinType":"Dog waste bin only"},"geometry":{"type":"Point","coordinates":[-1.1413339962911238,53.95908197166234]}},{"type":"Feature","properties":{"OBJECTID":1090,"Street":"Staindale Close","Location":"Southern Part Of Nearby Field","Ward":"Clifton","BinType":"Dog waste bin only"},"geometry":{"type":"Point","coordinates":[-1.1100530508560382,53.98445230124864]}},{"type":"Feature","properties":{"OBJECTID":1089,"Street":"St Marks Grove","Location":"Snicket Past Play Area","Ward":"Clifton","BinType":"Dog waste bin only"},"geometry":{"type":"Point","coordinates":[-1.109436372789637,53.986910448010036]}},{"type":"Feature","properties":{"OBJECTID":1073,"Street":"Shipton Road","Location":"Jw Howard Drive","Ward":"Clifton","BinType":"Dog and litter bin (large)"},"geometry":{"type":"Point","coordinates":[-1.1180402456947525,53.98318992902588]}},{"type":"Feature","properties":{"OBJECTID":1085,"Street":"Shipton Road","Location":"Os 218 By Shops","Ward":"Clifton","BinType":"Dog and litter bin (small)"},"geometry":{"type":"Point","coordinates":[-1.1183641115519816,53.983740572847715]}},{"type":"Feature","properties":{"OBJECTID":1086,"Street":"Shipton Road","Location":"Os Lg Ombudsman","Ward":"Clifton","BinType":"Dog and litter bin (small)"},"geometry":{"type":"Point","coordinates":[-1.102057421534846,53.97189949173625]}},{"type":"Feature","properties":{"OBJECTID":1087,"Street":"St Marks Grove","Location":"End Of Road","Ward":"Clifton","BinType":"Dog and litter bin (large)"},"geometry":{"type":"Point","coordinates":[-1.110858568515318,53.9860131867995]}},{"type":"Feature","properties":{"OBJECTID":1084,"Street":"Shipton Road","Location":"Opp Jw Loweswater Road","Ward":"Clifton","BinType":"Dog waste bin only"},"geometry":{"type":"Point","coordinates":[-1.1153980240825778,53.98050107669852]}},{"type":"Feature","properties":{"OBJECTID":1083,"Street":"Shipton Road","Location":"Opp 58","Ward":"Clifton","BinType":"Dog waste bin only"},"geometry":{"type":"Point","coordinates":[-1.1066392945398156,53.975079443075856]}},{"type":"Feature","properties":{"OBJECTID":1082,"Street":"Shipton Road","Location":"Opp 278","Ward":"Clifton","BinType":"Dog waste bin only"},"geometry":{"type":"Point","coordinates":[-1.121126707365067,53.98580107748414]}},{"type":"Feature","properties":{"OBJECTID":1081,"Street":"Shipton Road","Location":"Opp 224","Ward":"Clifton","BinType":"Dog waste bin only"},"geometry":{"type":"Point","coordinates":[-1.1198026728626986,53.98494651858807]}},{"type":"Feature","properties":{"OBJECTID":1080,"Street":"Shipton Road","Location":"Nature Reserve at P&R","Ward":"Clifton","BinType":"Dog waste bin only"},"geometry":{"type":"Point","coordinates":[-1.1235666918396752,53.98289958933246]}},{"type":"Feature","properties":{"OBJECTID":1079,"Street":"Shipton Road","Location":"Nature Reserve Next To P&R","Ward":"Clifton","BinType":"Dog waste bin only"},"geometry":{"type":"Point","coordinates":[-1.1235725465490427,53.98334723437892]}},{"type":"Feature","properties":{"OBJECTID":1078,"Street":"Shipton Road","Location":"Nature Reserve Next To P&R","Ward":"Clifton","BinType":"Dog waste bin only"},"geometry":{"type":"Point","coordinates":[-1.123369049278755,53.98359741455207]}},{"type":"Feature","properties":{"OBJECTID":1077,"Street":"Shipton Road","Location":"Nature Reserve Next To P&R","Ward":"Clifton","BinType":"Dog waste bin only"},"geometry":{"type":"Point","coordinates":[-1.1214593432633981,53.9837632332255]}},{"type":"Feature","properties":{"OBJECTID":1076,"Street":"Shipton Road","Location":"Nature Reserve Next To P&R","Ward":"Clifton","BinType":"Dog waste bin only"},"geometry":{"type":"Point","coordinates":[-1.1224274376610235,53.984138812285906]}},{"type":"Feature","properties":{"OBJECTID":1075,"Street":"Shipton Road","Location":"Nature Reserve Next To P&R","Ward":"Clifton","BinType":"Dog waste bin only"},"geometry":{"type":"Point","coordinates":[-1.120625193829959,53.984269450221774]}},{"type":"Feature","properties":{"OBJECTID":1067,"Street":"Rawcliffe Lane","Location":"Play Area By Lib MIDDLE OF AREA ","Ward":"Clifton","BinType":"Dog and litter bin (large)"},"geometry":{"type":"Point","coordinates":[-1.106672552770528,53.96924646012897]}},{"type":"Feature","properties":{"OBJECTID":1068,"Street":"Rawcliffe Park And Ride","Location":"Bus Round About","Ward":"Clifton","BinType":"Dog and litter bin (large)"},"geometry":{"type":"Point","coordinates":[-1.1229366073806284,53.98458294008839]}},{"type":"Feature","properties":{"OBJECTID":1069,"Street":"Rawcliffe Park And Ride","Location":"Front Of Terminal","Ward":"Clifton","BinType":"Dog and litter bin (large)"},"geometry":{"type":"Point","coordinates":[-1.1229213596179635,53.984582828842534]}},{"type":"Feature","properties":{"OBJECTID":1070,"Street":"Rishworth Grove","Location":"By 34  on Lakeside Path","Ward":"Clifton","BinType":"Dog and litter bin (large)"},"geometry":{"type":"Point","coordinates":[-1.104375723654896,53.984652813897114]}},{"type":"Feature","properties":{"OBJECTID":1071,"Street":"Shipton Road","Location":"Bus Entrance To Park And Ride","Ward":"Clifton","BinType":"Dog and litter bin (large)"},"geometry":{"type":"Point","coordinates":[-1.119061891721047,53.98391646032907]}},{"type":"Feature","properties":{"OBJECTID":1072,"Street":"Shipton Road","Location":"Jw Howard Drive","Ward":"Clifton","BinType":"Dog and litter bin (large)"},"geometry":{"type":"Point","coordinates":[-1.1180402456947525,53.98318992902588]}},{"type":"Feature","properties":{"OBJECTID":1074,"Street":"Shipton Road","Location":"Nature Reserve Next To P&R","Ward":"Clifton","BinType":"Dog waste bin only"},"geometry":{"type":"Point","coordinates":[-1.1207328734208346,53.98422529785991]}},{"type":"Feature","properties":{"OBJECTID":1064,"Street":"Rawcliffe Lane","Location":"In Play Area By Lib BASKET BALL CT ","Ward":"Clifton","BinType":"Dog and litter bin (small)"},"geometry":{"type":"Point","coordinates":[-1.106757271559907,53.97811827106821]}},{"type":"Feature","properties":{"OBJECTID":1066,"Street":"Rawcliffe Lane","Location":"Play Area ENTRANCE ","Ward":"Clifton","BinType":"Dog and litter bin (large)"},"geometry":{"type":"Point","coordinates":[-1.106293758309915,53.978402442416446]}},{"type":"Feature","properties":{"OBJECTID":1063,"Street":"Rawcliffe Drive","Location":"Opp Ings Way","Ward":"Clifton","BinType":"Dog waste bin only"},"geometry":{"type":"Point","coordinates":[-1.1014975240489708,53.97595789684252]}},{"type":"Feature","properties":{"OBJECTID":1057,"Street":"Oakdale Road","Location":"Jw Rivelin Way","Ward":"Clifton","BinType":"Dog and litter bin (small)"},"geometry":{"type":"Point","coordinates":[-1.1051934810519106,53.98420950308528]}},{"type":"Feature","properties":{"OBJECTID":1061,"Street":"Rawcliffe Drive","Location":"Jw Oriel Grove","Ward":"Clifton","BinType":"Dog and litter bin (small)"},"geometry":{"type":"Point","coordinates":[-1.0987280361068024,53.97782464873409]}},{"type":"Feature","properties":{"OBJECTID":1060,"Street":"Oakdale Road","Location":"Ped Access To Lake OPP SCHOOL ","Ward":"Clifton","BinType":"Dog waste bin only"},"geometry":{"type":"Point","coordinates":[-1.1043608818211863,53.98534478015274]}},{"type":"Feature","properties":{"OBJECTID":1053,"Street":"Malton Way","Location":"Shipton Road end","Ward":"Clifton","BinType":"Dog and litter bin (large)"},"geometry":{"type":"Point","coordinates":[-1.1055822047937762,53.974604204574455]}},{"type":"Feature","properties":{"OBJECTID":1056,"Street":"Minchin Close","Location":"Entrance to Clifton Backies","Ward":"Clifton","BinType":"Dog and litter bin (large)"},"geometry":{"type":"Point","coordinates":[-1.0926043910792758,53.97895601025501]}},{"type":"Feature","properties":{"OBJECTID":1059,"Street":"Oakdale Road","Location":"Ped Acces To Lake NEAR SCHOOL ","Ward":"Clifton","BinType":"Dog waste bin only"},"geometry":{"type":"Point","coordinates":[-1.1040257976010983,53.98461425429406]}},{"type":"Feature","properties":{"OBJECTID":1055,"Street":"Manor LANE ","Location":"Kw Manor Lane MANOR PARK RD ","Ward":"Clifton","BinType":"Dog waste bin only"},"geometry":{"type":"Point","coordinates":[-1.1175038774664225,53.98764404084096]}},{"type":"Feature","properties":{"OBJECTID":1054,"Street":"Manor Lane","Location":"Behind 17 Greenwich Close BY SNICKET","Ward":"Clifton","BinType":"Dog waste bin only"},"geometry":{"type":"Point","coordinates":[-1.113262559947326,53.98914977929231]}},{"type":"Feature","properties":{"OBJECTID":1049,"Street":"Harewood Close","Location":"Os Play Area","Ward":"Clifton","BinType":"Dog and litter bin (small)"},"geometry":{"type":"Point","coordinates":[-1.1208505703854656,53.98732701774189]}},{"type":"Feature","properties":{"OBJECTID":1051,"Street":"Landalewood road","Location":"Entrance to park","Ward":"Clifton","BinType":"Dog and litter bin (large)"},"geometry":{"type":"Point","coordinates":[-1.1055484192235427,53.98757365976417]}},{"type":"Feature","properties":{"OBJECTID":1052,"Street":"Lilbourne Drive","Location":"Os 94 JUNC ARCHER CLOSE","Ward":"Clifton","BinType":"Dog waste bin only"},"geometry":{"type":"Point","coordinates":[-1.0930562208038337,53.97710788604737]}},{"type":"Feature","properties":{"OBJECTID":1050,"Street":"Herdwick Close","Location":"Entrance to Clifton Backies","Ward":"Clifton","BinType":"Dog waste bin only"},"geometry":{"type":"Point","coordinates":[-1.093380804953986,53.98041792905427]}},{"type":"Feature","properties":{"OBJECTID":1047,"Street":"Greystoke Road","Location":"Access To Lake","Ward":"Clifton","BinType":"Dog waste bin only"},"geometry":{"type":"Point","coordinates":[-1.1074096834166853,53.98326426186699]}},{"type":"Feature","properties":{"OBJECTID":1038,"Street":"Broadstone Way","Location":"In Play Area","Ward":"Clifton","BinType":"Dog and litter bin (small)"},"geometry":{"type":"Point","coordinates":[-1.1108392477663565,53.98906896464666]}},{"type":"Feature","properties":{"OBJECTID":1041,"Street":"Eastholme Drive","Location":"Os 20","Ward":"Clifton","BinType":"Dog and litter bin (small)"},"geometry":{"type":"Point","coordinates":[-1.1071254100335557,53.979442244772436]}},{"type":"Feature","properties":{"OBJECTID":1042,"Street":"Eastholme Drive","Location":"Os 20","Ward":"Clifton","BinType":"Dog and litter bin (small)"},"geometry":{"type":"Point","coordinates":[-1.1071846643637746,53.97952357704051]}},{"type":"Feature","properties":{"OBJECTID":1043,"Street":"Eastholme Drive","Location":"Os 54","Ward":"Clifton","BinType":"Dog and litter bin (small)"},"geometry":{"type":"Point","coordinates":[-1.1109668043536034,53.98164581561102]}},{"type":"Feature","properties":{"OBJECTID":1044,"Street":"Eldwick Close","Location":"By Side Of Lake","Ward":"Clifton","BinType":"Dog and litter bin (small)"},"geometry":{"type":"Point","coordinates":[-1.1052264441055877,53.9833828513447]}},{"type":"Feature","properties":{"OBJECTID":1046,"Street":"Green Lane","Location":"Nr Jw Bowland Way","Ward":"Clifton","BinType":"Dog and litter bin (small)"},"geometry":{"type":"Point","coordinates":[-1.100411895114936,53.98176502764953]}},{"type":"Feature","properties":{"OBJECTID":1045,"Street":"Fairway","Location":"Jnc Rawcliffe Lane ","Ward":"Clifton","BinType":"Dog waste bin only"},"geometry":{"type":"Point","coordinates":[-1.1023464136321153,53.97476883175049]}},{"type":"Feature","properties":{"OBJECTID":1040,"Street":"Clifton Park Avenue","Location":"Jw Cricket Field Cottages CRICKET CLUB","Ward":"Clifton","BinType":"Dog waste bin only"},"geometry":{"type":"Point","coordinates":[-1.1107067668616646,53.975954478585116]}},{"type":"Feature","properties":{"OBJECTID":1039,"Street":"Clifton Park Avenue","Location":"At End Of Road By Church","Ward":"Clifton","BinType":"Dog waste bin only"},"geometry":{"type":"Point","coordinates":[-1.1147949794206566,53.975858822727446]}},{"type":"Feature","properties":{"OBJECTID":1035,"Street":"Armstrong Way","Location":"In Play Area","Ward":"Clifton","BinType":"Dog and litter bin (small)"},"geometry":{"type":"Point","coordinates":[-1.1137587653090308,53.98732887445458]}},{"type":"Feature","properties":{"OBJECTID":1036,"Street":"Beaverdyke","Location":"Access To Lake At End Of Road","Ward":"Clifton","BinType":"Dog and litter bin (large)"},"geometry":{"type":"Point","coordinates":[-1.1065318245008937,53.982242095017334]}},{"type":"Feature","properties":{"OBJECTID":1037,"Street":"Brailsford Crescent","Location":"Next To 12","Ward":"Clifton","BinType":"Dog waste bin only"},"geometry":{"type":"Point","coordinates":[-1.094592890901556,53.97796434534546]}},{"type":"Feature","properties":{"OBJECTID":1034,"Street":"Armstrong Way","Location":"In Play Area","Ward":"Clifton","BinType":"Dog and litter bin (small)"},"geometry":{"type":"Point","coordinates":[-1.1137017763162622,53.98713970630938]}},{"type":"Feature","properties":{"OBJECTID":1009,"Street":"Grimston Bar Park And Ride","Location":"Park And Ride South Car Park","Ward":"Hull Road","BinType":"Dog and litter bin (small)"},"geometry":{"type":"Point","coordinates":[-1.0205107545218102,53.954266091043856]}},{"type":"Feature","properties":{"OBJECTID":969,"Street":"Church Street","Location":"Os St Nicholas Church","Ward":"Osbaldwick and Derwent","BinType":"Dog and litter bin (large)"},"geometry":{"type":"Point","coordinates":[-0.9831899062192013,53.96617097609448]}},{"type":"Feature","properties":{"OBJECTID":970,"Street":"Common Road","Location":"By Bridge Over Beck","Ward":"Osbaldwick and Derwent","BinType":"Dog waste bin only"},"geometry":{"type":"Point","coordinates":[-0.9745042206542804,53.960452618844975]}},{"type":"Feature","properties":{"OBJECTID":971,"Street":"Common Road","Location":"Dunnington JUNC HULL RD BUS STOP ","Ward":"Osbaldwick and Derwent","BinType":"Dog and litter bin (large)"},"geometry":{"type":"Point","coordinates":[-0.9717091392720385,53.955116733083734]}},{"type":"Feature","properties":{"OBJECTID":972,"Street":"Common Road","Location":"DUNnington O/S CHESTNUT HOUSE 25 ","Ward":"Osbaldwick and Derwent","BinType":"Dog waste bin only"},"geometry":{"type":"Point","coordinates":[-0.9777589819827459,53.96385090417912]}},{"type":"Feature","properties":{"OBJECTID":973,"Street":"Eastfield Lane","Location":"At Jw Holly Tree Lane","Ward":"Osbaldwick and Derwent","BinType":"Dog waste bin only"},"geometry":{"type":"Point","coordinates":[-0.9781177906685679,53.96850082419804]}},{"type":"Feature","properties":{"OBJECTID":974,"Street":"Eastfield Lane","Location":"Os The Oakes","Ward":"Osbaldwick and Derwent","BinType":"Dog and litter bin (small)"},"geometry":{"type":"Point","coordinates":[-0.975806050093739,53.96952377005919]}},{"type":"Feature","properties":{"OBJECTID":975,"Street":"Garden Flats Lane","Location":"At The Jw Petercroft Lane","Ward":"Osbaldwick and Derwent","BinType":"Dog and litter bin (small)"},"geometry":{"type":"Point","coordinates":[-0.978597627215437,53.965709592059035]}},{"type":"Feature","properties":{"OBJECTID":976,"Street":"Greenside","Location":"Os 1","Ward":"Osbaldwick and Derwent","BinType":"Dog and litter bin (small)"},"geometry":{"type":"Point","coordinates":[-0.9774059874195269,53.96332658867109]}},{"type":"Feature","properties":{"OBJECTID":977,"Street":"Horsfield Way","Location":"Footpath Next To 78","Ward":"Osbaldwick and Derwent","BinType":"Dog and litter bin (large)"},"geometry":{"type":"Point","coordinates":[-0.976265308568497,53.96695707518621]}},{"type":"Feature","properties":{"OBJECTID":978,"Street":"Horsfield Way","Location":"Footpath Next To 78","Ward":"Osbaldwick and Derwent","BinType":"Dog and litter bin (large)"},"geometry":{"type":"Point","coordinates":[-0.976265308568497,53.96695707518621]}},{"type":"Feature","properties":{"OBJECTID":979,"Street":"Hull Road","Location":"Layby Near 1079 Cafe","Ward":"Osbaldwick and Derwent","BinType":"Dog and litter bin (large)"},"geometry":{"type":"Point","coordinates":[-0.9951488353356878,53.95633068613559]}},{"type":"Feature","properties":{"OBJECTID":980,"Street":"Hull Road","Location":"Layby Near 1079 Cafe","Ward":"Osbaldwick and Derwent","BinType":"Dog and litter bin (large)"},"geometry":{"type":"Point","coordinates":[-0.9948778126350212,53.95619359742281]}},{"type":"Feature","properties":{"OBJECTID":981,"Street":"Hull Road","Location":"Layby Near 1079 Cafe","Ward":"Osbaldwick and Derwent","BinType":"Dog and litter bin (large)"},"geometry":{"type":"Point","coordinates":[-0.9948778126350212,53.95619359742281]}},{"type":"Feature","properties":{"OBJECTID":982,"Street":"Hull Road","Location":"Layby Near 1079 Cafe","Ward":"Osbaldwick and Derwent","BinType":"Dog and litter bin (large)"},"geometry":{"type":"Point","coordinates":[-0.9948778126350212,53.95619359742281]}},{"type":"Feature","properties":{"OBJECTID":983,"Street":"Intake Lane","Location":"After Twinam Court","Ward":"Osbaldwick and Derwent","BinType":"Dog waste bin only"},"geometry":{"type":"Point","coordinates":[-0.9693395649637908,53.965306978347684]}},{"type":"Feature","properties":{"OBJECTID":984,"Street":"Intake Lane","Location":"At Beginning Of Ox Carver Way Footpath","Ward":"Osbaldwick and Derwent","BinType":"Dog and litter bin (large)"},"geometry":{"type":"Point","coordinates":[-0.9660962431669401,53.96701383280147]}},{"type":"Feature","properties":{"OBJECTID":985,"Street":"Intake Lane","Location":"Dunnington IN PLAY AREA NON CYC","Ward":"Osbaldwick and Derwent","BinType":"Dog and litter bin (small)"},"geometry":{"type":"Point","coordinates":[-0.9756914295688999,53.9630063901458]}},{"type":"Feature","properties":{"OBJECTID":986,"Street":"Intake Lane","Location":"On Green","Ward":"Osbaldwick and Derwent","BinType":"Dog waste bin only"},"geometry":{"type":"Point","coordinates":[-0.97584206003138,53.96307957910585]}},{"type":"Feature","properties":{"OBJECTID":987,"Street":"Intake Lane","Location":"Os Play Area","Ward":"Osbaldwick and Derwent","BinType":"Dog and litter bin (large)"},"geometry":{"type":"Point","coordinates":[-0.9751713121195521,53.96308284918776]}},{"type":"Feature","properties":{"OBJECTID":988,"Street":"Intake Lane","Location":"Os Playing Field","Ward":"Osbaldwick and Derwent","BinType":"Dog and litter bin (small)"},"geometry":{"type":"Point","coordinates":[-0.9752675956890443,53.96288593098528]}},{"type":"Feature","properties":{"OBJECTID":989,"Street":"Intake Lane","Location":"Other side of entrance to existing bin","Ward":"Osbaldwick and Derwent","BinType":"Dog and litter bin (large)"},"geometry":{"type":"Point","coordinates":[-0.9752936669402303,53.9630659162364]}},{"type":"Feature","properties":{"OBJECTID":990,"Street":"Murton Way","Location":"Bus Stop Opp Church View","Ward":"Osbaldwick and Derwent","BinType":"Dog and litter bin (small)"},"geometry":{"type":"Point","coordinates":[-1.0110140917548636,53.96597173464131]}},{"type":"Feature","properties":{"OBJECTID":991,"Street":"Murton Way","Location":"Opp Jw Murton Garth Near Bus Stop","Ward":"Osbaldwick and Derwent","BinType":"Dog and litter bin (small)"},"geometry":{"type":"Point","coordinates":[-1.0141073020873568,53.96537696934128]}},{"type":"Feature","properties":{"OBJECTID":993,"Street":"York Road","Location":"Bus Stop Os 73","Ward":"Osbaldwick and Derwent","BinType":"Dog and litter bin (small)"},"geometry":{"type":"Point","coordinates":[-0.9856711924464985,53.963171930078616]}},{"type":"Feature","properties":{"OBJECTID":994,"Street":"York Street","Location":"At Jw Derwent Estates","Ward":"Osbaldwick and Derwent","BinType":"Dog and litter bin (small)"},"geometry":{"type":"Point","coordinates":[-0.9900363464157366,53.96230089224447]}},{"type":"Feature","properties":{"OBJECTID":995,"Street":"York Street","Location":"Bus Stop Os 11","Ward":"Osbaldwick and Derwent","BinType":"Dog and litter bin (small)"},"geometry":{"type":"Point","coordinates":[-0.9803138556417155,53.96471749423937]}},{"type":"Feature","properties":{"OBJECTID":996,"Street":"York Street","Location":"DUNNINGTON JUNC MANOR DRIVE ","Ward":"Osbaldwick and Derwent","BinType":"Dog waste bin only"},"geometry":{"type":"Point","coordinates":[-0.9834825676430365,53.96353992753904]}},{"type":"Feature","properties":{"OBJECTID":997,"Street":"York Street","Location":"DUNNINGTON O/S SHOPS OPP 40 ","Ward":"Osbaldwick and Derwent","BinType":"Dog and litter bin (small)"},"geometry":{"type":"Point","coordinates":[-0.982208280527683,53.9639156322982]}},{"type":"Feature","properties":{"OBJECTID":998,"Street":"York Street","Location":"Os 12","Ward":"Osbaldwick and Derwent","BinType":"Dog and litter bin (small)"},"geometry":{"type":"Point","coordinates":[-0.980295545622447,53.96484317284794]}},{"type":"Feature","properties":{"OBJECTID":1000,"Street":"York Street","Location":"Os 44","Ward":"Osbaldwick and Derwent","BinType":"Dog and litter bin (small)"},"geometry":{"type":"Point","coordinates":[-0.9832213101251382,53.96362759881348]}},{"type":"Feature","properties":{"OBJECTID":1,"Street":"Beckfield Lane","Location":"Bus Stop Opp 232","Ward":"Acomb","BinType":"Dog and litter bin (small)"},"geometry":{"type":"Point","coordinates":[-1.1336525312540733,53.969381042267024]}},{"type":"Feature","properties":{"OBJECTID":2,"Street":"Beckfield Lane","Location":"Green Space Nextto 64","Ward":"Acomb","BinType":"Dog waste bin only"},"geometry":{"type":"Point","coordinates":[-1.135546886088138,53.961080766111]}},{"type":"Feature","properties":{"OBJECTID":3,"Street":"Beckfield Lane","Location":"Jw Fellbrook Avenue","Ward":"Acomb","BinType":"Dog and litter bin (small)"},"geometry":{"type":"Point","coordinates":[-1.1354554702003608,53.957395018013756]}},{"type":"Feature","properties":{"OBJECTID":5,"Street":"Beckfield Lane","Location":"Opp Melwood Grove Os Pub","Ward":"Acomb","BinType":"Dog and litter bin (small)"},"geometry":{"type":"Point","coordinates":[-1.1345473209296455,53.96445306822934]}},{"type":"Feature","properties":{"OBJECTID":6,"Street":"Beckfield Lane","Location":"Os 139","Ward":"Acomb","BinType":"Dog and litter bin (large)"},"geometry":{"type":"Point","coordinates":[-1.1346551584791438,53.962925881353115]}},{"type":"Feature","properties":{"OBJECTID":7,"Street":"Beckfield Lane","Location":"Os 149 By Po","Ward":"Acomb","BinType":"Dog and litter bin (small)"},"geometry":{"type":"Point","coordinates":[-1.1345289376683134,53.96386871461142]}},{"type":"Feature","properties":{"OBJECTID":8,"Street":"Beckfield Lane","Location":"Os 87 By Bus Stop","Ward":"Acomb","BinType":"Dog and litter bin (small)"},"geometry":{"type":"Point","coordinates":[-1.134875987752131,53.961093914646284]}},{"type":"Feature","properties":{"OBJECTID":9,"Street":"Beech Grove","Location":"Jw Rosedale Avenue","Ward":"Acomb","BinType":"Dog waste bin only"},"geometry":{"type":"Point","coordinates":[-1.1256614859773677,53.95786344424657]}},